ID,original_address,street,city,state,Latitude,Longitude,"Accuracy Score","Accuracy Type",Number,Street,City,State,County,Zip,Country
10001,"6700 BLOCK  WOODSTOCK RD","6700 WOODSTOCK RD","Fort Worth",TX,32.71701,-97.42893,1,range_interpolation,6700,"Woodstock Rd","Fort Worth",TX,"Tarrant County",76116,US
10002,"6700 BLOCK  WOODVIEW DR","6700 WOODVIEW DR","Fort Worth",TX,32.770875,-97.213475,1,range_interpolation,6700,"Woodview Dr","Fort Worth",TX,"Tarrant County",76112,US
10003,"6700 BLOCK  WOODWAY DR","6700 WOODWAY DR","Fort Worth",TX,32.646762,-97.377076,1,range_interpolation,6700,"Woodway Dr","Fort Worth",TX,"Tarrant County",76133,US
10004,"6700 BLOCK D BOCA RATON BL","6700 BOCA RATON BL","Fort Worth",TX,32.764138,-97.230857,0.8,street_center,,"Boca Raton Blvd","Fort Worth",TX,"Tarrant County",76112,US
10005,"6700 BLOCK D BURLINGTON BL","6700 BURLINGTON BL","Fort Worth",TX,32.861034,-97.361689,0.8,street_center,,"Burlington Rd","Fort Worth",TX,"Tarrant County",76179,US
10006,"6700 BLOCK D CAMP BOWIE BL","6700 CAMP BOWIE BL","Fort Worth",TX,32.721839,-97.431936,0.9,range_interpolation,6700,"Camp Bowie W Blvd","Fort Worth",TX,"Tarrant County",76116,US
10007,"6700 BLOCK D CAMP BOWIE WEST BL","6700 CAMP BOWIE WEST BL","Fort Worth",TX,32.721839,-97.431936,0.9,range_interpolation,6700,"Camp Bowie W Blvd","Fort Worth",TX,"Tarrant County",76116,US
10008,"6700 BLOCK D OAKMONT BL","6700 OAKMONT BL","Fort Worth",TX,32.653357,-97.411951,1,range_interpolation,6700,"Oakmont Trl","Fort Worth",TX,"Tarrant County",76132,US
10009,"6700 BLOCK D RIDGMAR BL","6700 RIDGMAR BL","Fort Worth",TX,32.737397,-97.42499,0.8,street_center,,"Ridgmar Blvd","Fort Worth",TX,"Tarrant County",76116,US
10010,"6700 BLOCK D SAGINAW BL","6700 SAGINAW BL","Fort Worth",TX,32.868917,-97.371184,0.8,street_center,,"Saginaw Blvd","Fort Worth",TX,"Tarrant County",76179,US
10011,"6700 BLOCK D SANDSHELL BL","6700 SANDSHELL BL","Fort Worth",TX,32.862761,-97.309708,0.9,range_interpolation,6700,"Sandshell Blvd","Fort Worth",TX,"Tarrant County",76137,US
10012,"6700 BLOCK D VICKERY BL","6700 VICKERY BL","Fort Worth",TX,32.739108,-97.306604,0.8,street_center,,"E Vickery Blvd","Fort Worth",TX,"Tarrant County",76104,US
10013,"6700 BLOCK D WILL ROGERS BL","6700 WILL ROGERS BL","Fort Worth",TX,32.646419,-97.312866,1,range_interpolation,6700,"Will Rogers Blvd","Fort Worth",TX,"Tarrant County",76140,US
10014,"6700 BLOCK Y HARRIS PK","6700 HARRIS PK","Fort Worth",TX,32.661604,-97.420372,1,range_interpolation,6700,"Harris Pkwy","Fort Worth",TX,"Tarrant County",76132,US
10015,"6700 BLOCK Y PLAZA PK","6700 PLAZA PK","Fort Worth",TX,32.729115,-97.2286,0.8,street_center,,"Plaza Cir","Fort Worth",TX,"Tarrant County",76112,US
10016,"6800 BLOCK  AMBER DR","6800 AMBER DR","Fort Worth",TX,32.643588,-97.3679,1,range_interpolation,6800,"Amber Dr","Fort Worth",TX,"Tarrant County",76133,US
10017,"6800 BLOCK  BATTLE CREEK RD","6800 BATTLE CREEK RD","Fort Worth",TX,32.697139,-97.427645,1,range_interpolation,6800,"Battle Creek Rd","Fort Worth",TX,"Tarrant County",76116,US
10018,"6800 BLOCK  BENITO CT","6800 BENITO CT","Fort Worth",TX,32.685682,-97.42861,1,range_interpolation,6800,"Benito Ct","Fort Worth",TX,"Tarrant County",76126,US
10019,"6800 BLOCK  BEVERLY GLEN DR","6800 BEVERLY GLEN DR","Fort Worth",TX,32.651624,-97.414008,1,range_interpolation,6800,"Beverly Glen Dr","Fort Worth",TX,"Tarrant County",76132,US
10020,"6800 BLOCK  BLACK WING DR","6800 BLACK WING DR","Fort Worth",TX,32.86258,-97.281461,1,range_interpolation,6800,"Black Wing Dr","Fort Worth",TX,"Tarrant County",76137,US
10021,"6800 BLOCK  BOB HANGER ST","6800 BOB HANGER ST","Fort Worth",TX,32.859715,-97.411257,1,range_interpolation,6800,"Bob Hanger St","Fort Worth",TX,"Tarrant County",76179,US
10022,"6800 BLOCK  BOWMAN ROBERTS RD","6800 BOWMAN ROBERTS RD","Fort Worth",TX,32.86068,-97.417278,1,range_interpolation,6800,"Bowman Roberts Rd","Fort Worth",TX,"Tarrant County",76179,US
10023,"6800 BLOCK  BRENTWOOD STAIR RD","6800 BRENTWOOD STAIR RD","Fort Worth",TX,32.754186,-97.212699,1,range_interpolation,6800,"Brentwood Stair Rd","Fort Worth",TX,"Tarrant County",76112,US
10024,"6800 BLOCK  CALMONT AVE","6800 CALMONT AVE","Fort Worth",TX,32.733974,-97.434591,1,range_interpolation,6800,"Calmont Ave","Fort Worth",TX,"Tarrant County",76116,US
10025,"6800 BLOCK  CAMELOT RD","6800 CAMELOT RD","Fort Worth",TX,32.636349,-97.339827,0.8,street_center,,"Camelot Rd","Fort Worth",TX,"Tarrant County",76134,US
10026,"6800 BLOCK  CHICKERING RD","6800 CHICKERING RD","Fort Worth",TX,32.706968,-97.4264,1,range_interpolation,6800,"Chickering Rd","Fort Worth",TX,"Tarrant County",76116,US
10027,"6800 BLOCK  CROWLEY RD","6800 CROWLEY RD","Fort Worth",TX,32.647836,-97.348709,1,range_interpolation,6800,"Crowley Rd","Fort Worth",TX,"Tarrant County",76134,US
10028,"6800 BLOCK  CUCULU DR","6800 CUCULU DR","Fort Worth",TX,32.643358,-97.354214,1,range_interpolation,6800,"Cuculu Dr","Fort Worth",TX,"Tarrant County",76133,US
10029,"6800 BLOCK  CUMBERLAND RD","6800 CUMBERLAND RD","Fort Worth",TX,32.70517,-97.426347,1,range_interpolation,6800,"Cumberland Rd","Fort Worth",TX,"Tarrant County",76116,US
10030,"6800 BLOCK  DANIELDALE DR","6800 DANIELDALE DR","Fort Worth",TX,32.867417,-97.307972,1,range_interpolation,6800,"Danieldale Dr","Fort Worth",TX,"Tarrant County",76137,US
10031,"6800 BLOCK  DEL PRADO AVE","6800 DEL PRADO AVE","Fort Worth",TX,32.648082,-97.388241,1,range_interpolation,6800,"Del Prado Ave","Fort Worth",TX,"Tarrant County",76133,US
10032,"6800 BLOCK  DOUGAL AVE","6800 DOUGAL AVE","Fort Worth",TX,32.863426,-97.277199,0.8,street_center,,"Dougal Ave","Fort Worth",TX,"Tarrant County",76137,US
10033,"6800 BLOCK  DWIGHT ST","6800 DWIGHT ST","Fort Worth",TX,32.712329,-97.430191,1,range_interpolation,6800,"Dwight St","Fort Worth",TX,"Tarrant County",76116,US
10034,"6800 BLOCK  EAST FWY","6800 EAST FREEWAY","Fort Worth",TX,32.6785,-97.330511,0.33,place,,,"Fort Worth",TX,"Tarrant County",76115,US
10035,"6800 BLOCK  FALCONER WAY","6800 FALCONER WAY","Fort Worth",TX,32.860322,-97.404026,1,range_interpolation,6800,"Falconer Way","Fort Worth",TX,"Tarrant County",76179,US
10036,"6800 BLOCK  FORTUNE RD","6800 FORTUNE RD","Fort Worth",TX,32.716568,-97.432591,1,range_interpolation,6800,"Fortune Rd","Fort Worth",TX,"Tarrant County",76116,US
10037,"6800 BLOCK  FOXBORO CT","6800 FOXBORO CT","Fort Worth",TX,32.644114,-97.357725,1,range_interpolation,6800,"Foxboro Ct","Fort Worth",TX,"Tarrant County",76133,US
10038,"6800 BLOCK  FRANWOOD TER","6800 FRANWOOD TER","Fort Worth",TX,32.75334,-97.213061,1,range_interpolation,6800,"Franwood Ter","Fort Worth",TX,"Tarrant County",76112,US
10039,"6800 BLOCK  GENEVIEVE DR","6800 GENEVIEVE DR","Fort Worth",TX,32.868693,-97.305954,1,range_interpolation,6800,"Genevieve Dr","Fort Worth",TX,"Tarrant County",76137,US
10040,"6800 BLOCK  GILLIS JOHNSON ST","6800 GILLIS JOHNSON ST","Fort Worth",TX,32.860024,-97.412648,1,range_interpolation,6800,"Gillis Johnson St","Fort Worth",TX,"Tarrant County",76179,US
10041,"6800 BLOCK  GRANBURY RD","6800 GRANBURY RD","Fort Worth",TX,32.647896,-97.409904,1,range_interpolation,6800,"Granbury Rd","Fort Worth",TX,"Tarrant County",76133,US
10042,"6800 BLOCK  GREENLEE ST","6800 GREENLEE ST","Fort Worth",TX,32.741415,-97.212729,1,range_interpolation,6800,"Greenlee St","Fort Worth",TX,"Tarrant County",76112,US
10043,"6800 BLOCK  HALTOM RD","6800 HALTOM RD","Fort Worth",TX,32.861402,-97.280428,1,range_interpolation,6800,"Haltom Rd","Fort Worth",TX,"Tarrant County",76137,US
10044,"6800 BLOCK  HIGH COUNTRY DR","6800 HIGH COUNTRY DR","Fort Worth",TX,32.651139,-97.412154,1,range_interpolation,6800,"High Country Dr","Fort Worth",TX,"Tarrant County",76132,US
10045,"6800 BLOCK  HIGHTOWER ST","6800 HIGHTOWER ST","Fort Worth",TX,32.743252,-97.213364,1,range_interpolation,6800,"Hightower St","Fort Worth",TX,"Tarrant County",76112,US
10046,"6800 BLOCK  JEWELL AVE","6800 JEWELL AVE","Fort Worth",TX,32.744228,-97.212948,1,range_interpolation,6800,"Jewell Ave","Fort Worth",TX,"Tarrant County",76112,US
10047,"6800 BLOCK  JOHN T WHITE RD","6800 JOHN T WHITE RD","Fort Worth",TX,32.765559,-97.195929,0.8,street_center,,"John T White Rd","Fort Worth",TX,"Tarrant County",76120,US
10048,"6800 BLOCK  LEGATO LN","6800 LEGATO LN","Fort Worth",TX,32.645861,-97.333269,1,range_interpolation,6800,"Legato Ln","Fort Worth",TX,"Tarrant County",76134,US
10049,"6800 BLOCK  LOMA VISTA DR","6800 LOMA VISTA DR","Fort Worth",TX,32.64396,-97.363147,1,range_interpolation,6800,"Loma Vista Dr","Fort Worth",TX,"Tarrant County",76133,US
10050,"6800 BLOCK  MAIZE RD","6800 MAIZE RD","Fort Worth",TX,32.649283,-97.410268,1,range_interpolation,6800,"Maize Rd","Fort Worth",TX,"Tarrant County",76133,US
10051,"6800 BLOCK  MEADOW WAY LN","6800 MEADOW WAY LN","Fort Worth",TX,32.858842,-97.39539,1,range_interpolation,6800,"Meadow Way Ln","Fort Worth",TX,"Tarrant County",76179,US
10052,"6800 BLOCK  MILLWOOD ST","6800 MILLWOOD ST","Fort Worth",TX,32.865061,-97.335402,1,range_interpolation,6800,"Millwood St","Fort Worth",TX,"Tarrant County",76131,US
10053,"6800 BLOCK  NORMA ST","6800 NORMA ST","Fort Worth",TX,32.742294,-97.213104,1,range_interpolation,6800,"Norma St","Fort Worth",TX,"Tarrant County",76112,US
10054,"6800 BLOCK  NORTH FWY SR NB","6800 NORTH FREEWAY SERVICE ROAD","Fort Worth",TX,32.860248,-97.313874,0.8,range_interpolation,6800,"North Fwy","Fort Worth",TX,"Tarrant County",76131,US
10055,"6800 BLOCK  NORTHWEST LOOP 820 FWY","6800 NORTHWEST LOOP 820 FREEWAY","Fort Worth",TX,32.798973,-97.435876,0.9,range_interpolation,6800,"NW Loop 820 E","Fort Worth",TX,"Tarrant County",76135,US
10056,"6800 BLOCK  OLD RANDOL MILL RD","6800 OLD RANDOL MILL RD","Fort Worth",TX,32.779805,-97.207635,1,range_interpolation,6800,"Old Randol Mill Rd","Fort Worth",TX,"Tarrant County",76120,US
10057,"6800 BLOCK  PASCAL WAY","6800 PASCAL WAY","Fort Worth",TX,32.864553,-97.31146,1,range_interpolation,6800,"Pascal Way","Fort Worth",TX,"Tarrant County",76137,US
10058,"6800 BLOCK  PENHURST DR","6800 PENHURST DR","Fort Worth",TX,32.641831,-97.364089,1,range_interpolation,6800,"Penhurst Dr","Fort Worth",TX,"Tarrant County",76133,US
10059,"6800 BLOCK  POPPY DR","6800 POPPY DR","Fort Worth",TX,32.864132,-97.285494,1,range_interpolation,6800,"Poppy Dr","Fort Worth",TX,"Tarrant County",76137,US
10060,"6800 BLOCK  RANDOL MILL RD","6800 RANDOL MILL RD","Fort Worth",TX,32.779805,-97.207635,1,range_interpolation,6800,"Randol Mill Rd","Fort Worth",TX,"Tarrant County",76120,US
10061,"6800 BLOCK  RIDGMAR MEADOW RD","6800 RIDGMAR MEADOW RD","Fort Worth",TX,32.745624,-97.43502,1,range_interpolation,6800,"Ridgmar Meadow Rd","Fort Worth",TX,"Tarrant County",76116,US
10062,"6800 BLOCK  ROUTT ST","6800 ROUTT ST","Fort Worth",TX,32.734613,-97.21455,1,range_interpolation,6800,"Routt St","Fort Worth",TX,"Tarrant County",76112,US
10063,"6800 BLOCK  SAN LUIS TRL","6800 SAN LUIS TRL","Fort Worth",TX,32.867999,-97.317521,0.8,street_center,,"San Luis Trl","Fort Worth",TX,"Tarrant County",76131,US
10064,"6800 BLOCK  SETH BARWISE ST","6800 SETH BARWISE ST","Fort Worth",TX,32.860058,-97.415753,1,range_interpolation,6800,"Seth Barwise St","Fort Worth",TX,"Tarrant County",76179,US
10065,"6800 BLOCK  SNOWDEN RD","6800 SNOWDEN RD","Fort Worth",TX,32.648686,-97.308742,1,range_interpolation,6800,"Snowden Rd","Fort Worth",TX,"Tarrant County",76140,US
10066,"6800 BLOCK  SOUTH CREEK DR","6800 SOUTH CREEK DR","Fort Worth",TX,32.644996,-97.360235,1,range_interpolation,6800,"S Creek Dr","Fort Worth",TX,"Tarrant County",76133,US
10067,"6800 BLOCK  SOUTH FWY","6800 SOUTH FREEWAY","Fort Worth",TX,32.645824,-97.321771,1,range_interpolation,6800,"South Fwy","Fort Worth",TX,"Tarrant County",76134,US
10068,"6800 BLOCK  SOUTHWEST BLVD SR WB","6800 SOUTHWEST BLVD SERVICE ROAD","Fort Worth",TX,32.70128,-97.429167,0.8,street_center,,"Southwest Blvd","Fort Worth",TX,"Tarrant County",76116,US
10069,"6800 BLOCK  SPRINGHILL RD","6800 SPRINGHILL RD","Fort Worth",TX,32.706065,-97.426364,1,range_interpolation,6800,"Springhill Rd","Fort Worth",TX,"Tarrant County",76116,US
10070,"6800 BLOCK  STANDERING RD","6800 STANDERING RD","Fort Worth",TX,32.712958,-97.431208,1,range_interpolation,6800,"Standering Rd","Fort Worth",TX,"Tarrant County",76116,US
10071,"6800 BLOCK  TRAIL LAKE DR","6800 TRAIL LAKE DR","Fort Worth",TX,32.648084,-97.404463,1,range_interpolation,6800,"Trail Lake Dr","Fort Worth",TX,"Tarrant County",76133,US
10072,"6800 BLOCK  TURTLE STREAM DR","6800 TURTLE STREAM DR","Fort Worth",TX,32.861093,-97.407386,1,range_interpolation,6800,"Turtle Stream Dr","Fort Worth",TX,"Tarrant County",76179,US
10073,"6800 BLOCK  VALHALLA RD","6800 VALHALLA RD","Fort Worth",TX,32.700425,-97.431187,1,range_interpolation,6800,"Valhalla Rd","Fort Worth",TX,"Tarrant County",76116,US
10074,"6800 BLOCK  VAN NATTA LN","6800 VAN NATTA LN","Fort Worth",TX,32.740454,-97.213597,1,range_interpolation,6800,"Van Natta Ln","Fort Worth",TX,"Tarrant County",76112,US
10075,"6800 BLOCK  WEST FWY SR EB","6800 WEST FREEWAY SERVICE ROAD","Fort Worth",TX,32.733054,-97.380445,0.8,street_center,,"West Fwy","Fort Worth",TX,"Tarrant County",76107,US
10076,"6800 BLOCK  WEST FWY SR WB","6800 WEST FREEWAY SERVICE ROAD","Fort Worth",TX,32.733054,-97.380445,0.8,street_center,,"West Fwy","Fort Worth",TX,"Tarrant County",76107,US
10077,"6800 BLOCK  WESTCREEK DR","6800 WESTCREEK DR","Fort Worth",TX,32.641836,-97.364993,1,range_interpolation,6800,"Westcreek Dr","Fort Worth",TX,"Tarrant County",76133,US
10078,"6800 BLOCK  WESTGLEN DR","6800 WESTGLEN DR","Fort Worth",TX,32.643889,-97.367064,1,range_interpolation,6800,"Westglen Dr","Fort Worth",TX,"Tarrant County",76133,US
10079,"6800 BLOCK  WINCHESTER CT","6800 WINCHESTER CT","Fort Worth",TX,32.647652,-97.400222,1,range_interpolation,6800,"Winchester Ct","Fort Worth",TX,"Tarrant County",76133,US
10080,"6800 BLOCK  WINDCREST LN","6800 WINDCREST LN","Fort Worth",TX,32.641828,-97.363202,1,range_interpolation,6800,"Windcrest Ln","Fort Worth",TX,"Tarrant County",76133,US
10081,"6800 BLOCK  YOLANDA DR","6800 YOLANDA DR","Fort Worth",TX,32.751744,-97.213215,1,range_interpolation,6800,"Yolanda Dr","Fort Worth",TX,"Tarrant County",76112,US
10082,"6800 BLOCK D CAMP BOWIE BL","6800 CAMP BOWIE BL","Fort Worth",TX,32.720889,-97.433402,0.8,range_interpolation,6800,"Camp Bowie Blvd","Fort Worth",TX,"Tarrant County",76116,US
10083,"6800 BLOCK D CAMP BOWIE WEST BL","6800 CAMP BOWIE WEST BL","Fort Worth",TX,32.720889,-97.433402,0.8,range_interpolation,6800,"Camp Bowie Blvd","Fort Worth",TX,"Tarrant County",76116,US
10084,"6800 BLOCK D MANHATTAN BL","6800 MANHATTAN BL","Fort Worth",TX,32.774895,-97.212246,1,range_interpolation,6800,"Manhattan Blvd","Fort Worth",TX,"Tarrant County",76120,US
10085,"6800 BLOCK D OAKMONT BL","6800 OAKMONT BL","Fort Worth",TX,32.662992,-97.414951,0.9,range_interpolation,6800,"Oakmont Blvd","Fort Worth",TX,"Tarrant County",76132,US
10086,"6800 BLOCK D SANDSHELL BL","6800 SANDSHELL BL","Fort Worth",TX,32.850271,-97.308599,0.8,street_center,,"Sandshell Cir E","Fort Worth",TX,"Tarrant County",76137,US
10087,"6800 BLOCK D VICKERY BL","6800 VICKERY BL","Fort Worth",TX,32.739108,-97.306604,0.8,street_center,,"E Vickery Blvd","Fort Worth",TX,"Tarrant County",76104,US
10088,"6800 BLOCK D WILL ROGERS BL","6800 WILL ROGERS BL","Fort Worth",TX,32.647611,-97.312863,1,range_interpolation,6800,"Will Rogers Blvd","Fort Worth",TX,"Tarrant County",76140,US
10089,"6800 BLOCK SH","6800 SH","Fort Worth",TX,32.689848,-97.099534,0.8,street_center,,"Shea Ct",Arlington,TX,"Tarrant County",76014,US
10090,"6800 BLOCK Y HARRIS PK","6800 HARRIS PK","Fort Worth",TX,32.661604,-97.420372,0.8,street_center,,"Harris Pkwy","Fort Worth",TX,"Tarrant County",76132,US
10091,"6800 BLOCK Y PLAZA PK","6800 PLAZA PK","Fort Worth",TX,32.729115,-97.2286,0.8,street_center,,"Plaza Cir","Fort Worth",TX,"Tarrant County",76112,US
10092,"6900 BLOCK  ANDRESS DR","6900 ANDRESS DR","Fort Worth",TX,32.659092,-97.413547,1,range_interpolation,6900,"Andress Dr","Fort Worth",TX,"Tarrant County",76132,US
10093,"6900 BLOCK  AVINGTON WAY","6900 AVINGTON WAY","Fort Worth",TX,32.640514,-97.354311,0.8,street_center,,"Avington Way","Fort Worth",TX,"Tarrant County",76133,US
10094,"6900 BLOCK  BAL LAKE DR","6900 BAL LAKE DR","Fort Worth",TX,32.708458,-97.432272,1,range_interpolation,6900,"Bal Lake Dr","Fort Worth",TX,"Tarrant County",76116,US
10095,"6900 BLOCK  BATTLE CREEK RD","6900 BATTLE CREEK RD","Fort Worth",TX,32.696839,-97.427645,1,range_interpolation,6900,"Battle Creek Rd","Fort Worth",TX,"Tarrant County",76116,US
10096,"6900 BLOCK  BAYBERRY DR","6900 BAYBERRY DR","Fort Worth",TX,32.865554,-97.296316,1,range_interpolation,6900,"Bayberry Dr","Fort Worth",TX,"Tarrant County",76137,US
10097,"6900 BLOCK  BEATY ST","6900 BEATY ST","Fort Worth",TX,32.739404,-97.211216,1,range_interpolation,6900,"Beaty St","Fort Worth",TX,"Tarrant County",76112,US
10098,"6900 BLOCK  BENITO CT","6900 BENITO CT","Fort Worth",TX,32.686004,-97.429141,1,range_interpolation,6900,"Benito Ct","Fort Worth",TX,"Tarrant County",76126,US
10099,"6900 BLOCK  BENT SPUR DR","6900 BENT SPUR DR","Fort Worth",TX,32.867648,-97.434793,1,range_interpolation,6900,"Bent Spur Dr","Fort Worth",TX,"Tarrant County",76179,US
10100,"6900 BLOCK  BENTLEY AVE","6900 BENTLEY AVE","Fort Worth",TX,32.866676,-97.280425,1,range_interpolation,6900,"Bentley Ave","Fort Worth",TX,"Tarrant County",76137,US
10101,"6900 BLOCK  BOWMAN ROBERTS RD","6900 BOWMAN ROBERTS RD","Fort Worth",TX,32.86142,-97.417396,1,range_interpolation,6900,"Bowman Roberts Rd","Fort Worth",TX,"Tarrant County",76179,US
10102,"6900 BLOCK  BRENTWOOD STAIR RD","6900 BRENTWOOD STAIR RD","Fort Worth",TX,32.754168,-97.210511,1,range_interpolation,6900,"Brentwood Stair Rd","Fort Worth",TX,"Tarrant County",76112,US
10103,"6900 BLOCK  BRIARWOOD DR","6900 BRIARWOOD DR","Fort Worth",TX,32.655126,-97.411692,1,range_interpolation,6900,"Briarwood Dr","Fort Worth",TX,"Tarrant County",76132,US
10104,"6900 BLOCK  BROOKVALE RD","6900 BROOKVALE RD","Fort Worth",TX,32.652289,-97.425744,1,range_interpolation,6900,"Brookvale Rd","Fort Worth",TX,"Tarrant County",76132,US
10105,"6900 BLOCK  BRYANT IRVIN RD","6900 BRYANT IRVIN RD","Fort Worth",TX,32.655085,-97.429849,1,range_interpolation,6900,"Bryant Irvin Rd","Fort Worth",TX,"Tarrant County",76132,US
10106,"6900 BLOCK  CALMONT AVE","6900 CALMONT AVE","Fort Worth",TX,32.734231,-97.436103,1,range_interpolation,6900,"Calmont Ave","Fort Worth",TX,"Tarrant County",76116,US
10107,"6900 BLOCK  CHASE RIDGE TRL","6900 CHASE RIDGE TRL","Fort Worth",TX,32.866654,-97.312606,1,range_interpolation,6900,"Chase Ridge Trl","Fort Worth",TX,"Tarrant County",76137,US
10108,"6900 BLOCK  CHICKERING RD","6900 CHICKERING RD","Fort Worth",TX,32.70652,-97.432151,1,range_interpolation,6900,"Chickering Rd","Fort Worth",TX,"Tarrant County",76116,US
10109,"6900 BLOCK  CHIPPENDALE DR","6900 CHIPPENDALE DR","Fort Worth",TX,32.645301,-97.327284,1,range_interpolation,6900,"Chippendale Dr","Fort Worth",TX,"Tarrant County",76134,US
10110,"6900 BLOCK  CULVER AVE","6900 CULVER AVE","Fort Worth",TX,32.706208,-97.432012,1,range_interpolation,6900,"Culver Ave","Fort Worth",TX,"Tarrant County",76116,US
10111,"6900 BLOCK  DERBYSHIRE DR","6900 DERBYSHIRE DR","Fort Worth",TX,32.866688,-97.309261,0.8,street_center,,"Derbyshire Dr","Fort Worth",TX,"Tarrant County",76137,US
10112,"6900 BLOCK  EGAN WAY","6900 EGAN WAY","Fort Worth",TX,32.867511,-97.301594,1,range_interpolation,6900,"Egan Way","Fort Worth",TX,"Tarrant County",76137,US
10113,"6900 BLOCK  FALLBROOK CT","6900 FALLBROOK CT","Fort Worth",TX,32.770664,-97.210775,1,range_interpolation,6900,"Fallbrook Ct","Fort Worth",TX,"Tarrant County",76120,US
10114,"6900 BLOCK  GENEVIEVE DR","6900 GENEVIEVE DR","Fort Worth",TX,32.870987,-97.306237,1,range_interpolation,6900,"Genevieve Dr","Fort Worth",TX,"Tarrant County",76137,US
10115,"6900 BLOCK  GLADE OAKS DR","6900 GLADE OAKS DR","Fort Worth",TX,32.766682,-97.209811,1,range_interpolation,6900,"Glade Oaks Dr","Fort Worth",TX,"Tarrant County",76120,US
10116,"6900 BLOCK  GRANBURY RD","6900 GRANBURY RD","Fort Worth",TX,32.658895,-97.400235,0.8,street_center,,"Granbury Rd","Fort Worth",TX,"Tarrant County",76133,US
10117,"6900 BLOCK  HERITAGE LN","6900 HERITAGE LN","Fort Worth",TX,32.644998,-97.32418,1,range_interpolation,6900,"Heritage Ln","Fort Worth",TX,"Tarrant County",76134,US
10118,"6900 BLOCK  HIGHTOWER ST","6900 HIGHTOWER ST","Fort Worth",TX,32.743186,-97.21121,1,range_interpolation,6900,"Hightower St","Fort Worth",TX,"Tarrant County",76112,US
10119,"6900 BLOCK  INDIANA AVE","6900 INDIANA AVE","Fort Worth",TX,32.864606,-97.278222,1,range_interpolation,6900,"Indiana Ave","Fort Worth",TX,"Tarrant County",76137,US
10120,"6900 BLOCK  KINGSLEY DR","6900 KINGSLEY DR","Fort Worth",TX,32.645212,-97.326388,1,range_interpolation,6900,"Kingsley Dr","Fort Worth",TX,"Tarrant County",76134,US
10121,"6900 BLOCK  KIRKWOOD RD","6900 KIRKWOOD RD","Fort Worth",TX,32.717689,-97.435881,1,range_interpolation,6900,"Kirkwood Rd","Fort Worth",TX,"Tarrant County",76116,US
10122,"6900 BLOCK  LEGATO LN","6900 LEGATO LN","Fort Worth",TX,32.643649,-97.334619,1,range_interpolation,6900,"Legato Ln","Fort Worth",TX,"Tarrant County",76134,US
10123,"6900 BLOCK  LOMA VISTA DR","6900 LOMA VISTA DR","Fort Worth",TX,32.642296,-97.361275,1,range_interpolation,6900,"Loma Vista Dr","Fort Worth",TX,"Tarrant County",76133,US
10124,"6900 BLOCK  LOMO ALTO DR","6900 LOMO ALTO DR","Fort Worth",TX,32.652186,-97.414897,1,range_interpolation,6900,"Lomo Alto Dr","Fort Worth",TX,"Tarrant County",76132,US
10125,"6900 BLOCK  MEADOW WAY LN","6900 MEADOW WAY LN","Fort Worth",TX,32.860812,-97.394831,1,range_interpolation,6900,"Meadow Way Ln","Fort Worth",TX,"Tarrant County",76179,US
10126,"6900 BLOCK  MEADOWBROOK DR","6900 MEADOWBROOK DR","Fort Worth",TX,32.745859,-97.211165,1,range_interpolation,6900,"Meadowbrook Dr","Fort Worth",TX,"Tarrant County",76112,US
10127,"6900 BLOCK  MESA DR","6900 MESA DR","Fort Worth",TX,32.657211,-97.415065,1,range_interpolation,6900,"Mesa Dr","Fort Worth",TX,"Tarrant County",76132,US
10128,"6900 BLOCK  MIRAMAR CIR","6900 MIRAMAR CIR","Fort Worth",TX,32.686004,-97.429141,1,range_interpolation,6900,"Miramar Cir","Fort Worth",TX,"Tarrant County",76126,US
10129,"6900 BLOCK  MISTY GLEN CT","6900 MISTY GLEN CT","Fort Worth",TX,32.769825,-97.210785,1,range_interpolation,6900,"Misty Glen Ct","Fort Worth",TX,"Tarrant County",76120,US
10130,"6900 BLOCK  NORTH FWY SR NB","6900 NORTH FREEWAY SERVICE ROAD","Fort Worth",TX,32.795731,-97.32314,0.8,street_center,,"North Fwy","Fort Worth",TX,"Tarrant County",76106,US
10131,"6900 BLOCK  NORTHWEST LOOP 820 FWY","6900 NORTHWEST LOOP 820 FREEWAY","Fort Worth",TX,32.797959,-97.438917,0.9,range_interpolation,6900,"NW Loop 820 E","Fort Worth",TX,"Tarrant County",76135,US
10132,"6900 BLOCK  PARK FOREST DR","6900 PARK FOREST DR","Fort Worth",TX,32.86363,-97.289847,1,range_interpolation,6900,"Park Forest Dr","Fort Worth",TX,"Tarrant County",76137,US
10133,"6900 BLOCK  PENHURST DR","6900 PENHURST DR","Fort Worth",TX,32.642868,-97.3646,1,range_interpolation,6900,"Penhurst Dr","Fort Worth",TX,"Tarrant County",76133,US
10134,"6900 BLOCK  RANDOL MILL RD","6900 RANDOL MILL RD","Fort Worth",TX,32.779036,-97.209325,1,range_interpolation,6900,"Randol Mill Rd","Fort Worth",TX,"Tarrant County",76120,US
10135,"6900 BLOCK  RED FOX TRL","6900 RED FOX TRL","Fort Worth",TX,32.867676,-97.299667,1,range_interpolation,6900,"Red Fox Trl","Fort Worth",TX,"Tarrant County",76137,US
10136,"6900 BLOCK  RIDGMAR MEADOW RD","6900 RIDGMAR MEADOW RD","Fort Worth",TX,32.737397,-97.42499,0.8,street_center,,"Ridgmar Blvd","Fort Worth",TX,"Tarrant County",76116,US
10137,"6900 BLOCK  ROBINHOOD LN","6900 ROBINHOOD LN","Fort Worth",TX,32.744928,-97.211182,1,range_interpolation,6900,"Robinhood Ln","Fort Worth",TX,"Tarrant County",76112,US
10138,"6900 BLOCK  ROCKDALE RD","6900 ROCKDALE RD","Fort Worth",TX,32.640241,-97.327491,0.8,street_center,,"Rockdale Rd","Fort Worth",TX,"Tarrant County",76134,US
10139,"6900 BLOCK  SANDSTONE CT","6900 SANDSTONE CT","Fort Worth",TX,32.771432,-97.210769,1,range_interpolation,6900,"Sandstone Ct","Fort Worth",TX,"Tarrant County",76120,US
10140,"6900 BLOCK  SANDYBROOK DR","6900 SANDYBROOK DR","Fort Worth",TX,32.772181,-97.210765,1,range_interpolation,6900,"Sandybrook Dr","Fort Worth",TX,"Tarrant County",76120,US
10141,"6900 BLOCK  SOUTH FWY SR SB","6900 SOUTH FREEWAY SERVICE ROAD","Fort Worth",TX,32.644797,-97.321921,1,range_interpolation,6900,"South Fwy","Fort Worth",TX,"Tarrant County",76134,US
10142,"6900 BLOCK  SOUTHWEST BLVD SR WB","6900 SOUTHWEST BLVD SERVICE ROAD","Fort Worth",TX,32.70128,-97.429167,0.8,street_center,,"Southwest Blvd","Fort Worth",TX,"Tarrant County",76116,US
10143,"6900 BLOCK  SUNFLOWER CIR N","6900 SUNFLOWER CIR N","Fort Worth",TX,32.773713,-97.210763,1,range_interpolation,6900,"Sunflower Cir N","Fort Worth",TX,"Tarrant County",76120,US
10144,"6900 BLOCK  SUNFLOWER CIR S","6900 SUNFLOWER CIR S","Fort Worth",TX,32.773591,-97.208228,1,range_interpolation,6900,"Sunflower Cir S","Fort Worth",TX,"Tarrant County",76120,US
10145,"6900 BLOCK  SUNNYBANK DR","6900 SUNNYBANK DR","Fort Worth",TX,32.864916,-97.287235,1,range_interpolation,6900,"Sunnybank Dr","Fort Worth",TX,"Tarrant County",76137,US
10146,"6900 BLOCK  SYLVAN MEADOWS DR","6900 SYLVAN MEADOWS DR","Fort Worth",TX,32.768933,-97.209693,1,range_interpolation,6900,"Sylvan Meadows Dr","Fort Worth",TX,"Tarrant County",76120,US
10147,"6900 BLOCK  TAMARACK RD","6900 TAMARACK RD","Fort Worth",TX,32.69487,-97.431298,1,range_interpolation,6900,"Tamarack Rd","Fort Worth",TX,"Tarrant County",76116,US
10148,"6900 BLOCK  TAMERON TRL","6900 TAMERON TRL","Fort Worth",TX,32.651859,-97.426706,1,range_interpolation,6900,"Tameron Trl","Fort Worth",TX,"Tarrant County",76132,US
10149,"6900 BLOCK  TOPANGA TER","6900 TOPANGA TER","Fort Worth",TX,32.648864,-97.414467,1,range_interpolation,6900,"Topanga Ter","Fort Worth",TX,"Tarrant County",76132,US
10150,"6900 BLOCK  TRAIL LAKE DR","6900 TRAIL LAKE DR","Fort Worth",TX,32.64623,-97.403883,1,range_interpolation,6900,"Trail Lake Dr","Fort Worth",TX,"Tarrant County",76133,US
10151,"6900 BLOCK  TRIMBLE DR","6900 TRIMBLE DR","Fort Worth",TX,32.645891,-97.331587,1,range_interpolation,6900,"Trimble Dr","Fort Worth",TX,"Tarrant County",76134,US
10152,"6900 BLOCK  WEATHERWOOD RD","6900 WEATHERWOOD RD","Fort Worth",TX,32.643805,-97.378926,1,range_interpolation,6900,"Weatherwood Rd","Fort Worth",TX,"Tarrant County",76133,US
10153,"6900 BLOCK  WEST FWY SR WB","6900 WEST FREEWAY SERVICE ROAD","Fort Worth",TX,32.735942,-97.440394,0.8,range_interpolation,6900,"West Fwy","Fort Worth",TX,"Tarrant County",76116,US
10154,"6900 BLOCK  WESTCREEK HAVEN DR","6900 WESTCREEK HAVEN DR","Fort Worth",TX,32.642869,-97.365593,0.9,range_interpolation,6900,"Westcreek Dr","Fort Worth",TX,"Tarrant County",76133,US
10155,"6900 BLOCK  WHITMAN AVE","6900 WHITMAN AVE","Fort Worth",TX,32.646684,-97.401896,1,range_interpolation,6900,"Whitman Ave","Fort Worth",TX,"Tarrant County",76133,US
10156,"6900 BLOCK  WICHITA ST","6900 WICHITA ST","Fort Worth",TX,32.656031,-97.282647,0.8,range_interpolation,6900,"Wichita St","Fort Worth",TX,"Tarrant County",76140,US
10157,"6900 BLOCK  WICKS TRL","6900 WICKS TRL","Fort Worth",TX,32.644493,-97.403448,1,range_interpolation,6900,"Wicks Trl","Fort Worth",TX,"Tarrant County",76133,US
10158,"6900 BLOCK  WILTON DR","6900 WILTON DR","Fort Worth",TX,32.647069,-97.398533,1,range_interpolation,6900,"Wilton Dr","Fort Worth",TX,"Tarrant County",76133,US
10159,"6900 BLOCK  WINCHESTER PL","6900 WINCHESTER PL","Fort Worth",TX,32.646534,-97.399211,1,range_interpolation,6900,"Winchester Pl","Fort Worth",TX,"Tarrant County",76133,US
10160,"6900 BLOCK  WINDCREST LN","6900 WINDCREST LN","Fort Worth",TX,32.642905,-97.363638,1,range_interpolation,6900,"Windcrest Ln","Fort Worth",TX,"Tarrant County",76133,US
10161,"6900 BLOCK  WINDSWEPT CIR","6900 WINDSWEPT CIR","Fort Worth",TX,32.794776,-97.438125,1,range_interpolation,6900,"Windswept Cir","Fort Worth",TX,"Tarrant County",76135,US
10162,"6900 BLOCK  WINDWOOD TRL","6900 WINDWOOD TRL","Fort Worth",TX,32.656198,-97.414931,1,range_interpolation,6900,"Windwood Trl","Fort Worth",TX,"Tarrant County",76132,US
10163,"6900 BLOCK  WINIFRED DR","6900 WINIFRED DR","Fort Worth",TX,32.64663,-97.40289,1,range_interpolation,6900,"Winifred Dr","Fort Worth",TX,"Tarrant County",76133,US
10164,"6900 BLOCK  YORKSTON","6900 YORKSTON","Fort Worth",TX,32.868825,-97.257409,1,range_interpolation,6900,Yorkston,"Fort Worth",TX,"Tarrant County",76148,US
10165,"6900 BLOCK D ALTAMESA BL","6900 ALTAMESA BL","Fort Worth",TX,32.651245,-97.3829,0.8,street_center,,"Altamesa Blvd","Fort Worth",TX,"Tarrant County",76133,US
10166,"6900 BLOCK D ANDERSON BL","6900 ANDERSON BL","Fort Worth",TX,32.763157,-97.21082,1,range_interpolation,6900,"Anderson Blvd","Fort Worth",TX,"Tarrant County",76120,US
10167,"6900 BLOCK D CAMP BOWIE BL","6900 CAMP BOWIE BL","Fort Worth",TX,32.734218,-97.402507,0.8,street_center,,"Camp Bowie Blvd","Fort Worth",TX,"Tarrant County",76107,US
10168,"6900 BLOCK D CAMP BOWIE WEST BL","6900 CAMP BOWIE WEST BL","Fort Worth",TX,32.734218,-97.402507,0.8,street_center,,"Camp Bowie Blvd","Fort Worth",TX,"Tarrant County",76107,US
10169,"6900 BLOCK D LAKE WORTH BL","6900 LAKE WORTH BL","Fort Worth",TX,32.811107,-97.431509,0.8,street_center,,"Jacksboro Hwy","Fort Worth",TX,"Tarrant County",76114,US
10170,"6900 BLOCK D OAKMONT BL","6900 OAKMONT BL","Fort Worth",TX,32.662985,-97.413816,0.9,range_interpolation,6900,"Oakmont Blvd","Fort Worth",TX,"Tarrant County",76132,US
10171,"6900 BLOCK D VICKERY BL","6900 VICKERY BL","Fort Worth",TX,32.739108,-97.306604,0.8,street_center,,"E Vickery Blvd","Fort Worth",TX,"Tarrant County",76104,US
10172,"6900 BLOCK D WILL ROGERS BL","6900 WILL ROGERS BL","Fort Worth",TX,32.644215,-97.31302,1,range_interpolation,6900,"Will Rogers Blvd","Fort Worth",TX,"Tarrant County",76140,US
10173,"6TH AVE W SEMINARY DR","6TH AVE W SEMINARY DR","Fort Worth",TX,32.705874,-97.340645,1,street_center,,"6th Ave","Fort Worth",TX,"Tarrant County",76110,US
10174,"700 BLOCK  5TH AVE","700 5TH AVE","Fort Worth",TX,32.736874,-97.338485,1,range_interpolation,700,"5th Ave","Fort Worth",TX,"Tarrant County",76104,US
10175,"700 BLOCK  ADOLPHUS CIR","700 ADOLPHUS CIR","Fort Worth",TX,32.771419,-97.291484,0.33,place,,,"Fort Worth",TX,"Tarrant County",76101,US
10176,"700 BLOCK  ALSUE ST","700 ALSUE ST","Fort Worth",TX,32.600081,-97.308701,1,range_interpolation,700,"Alsue St","Fort Worth",TX,"Tarrant County",76140,US
10177,"700 BLOCK  ALTA MERE DR","700 ALTA MERE DR","Fort Worth",TX,32.736306,-97.44067,0.8,street_center,,"Altamere Dr","Fort Worth",TX,"Tarrant County",76116,US
10178,"700 BLOCK  ARCH ADAMS LN","700 ARCH ADAMS LN","Fort Worth",TX,32.752054,-97.364837,1,range_interpolation,700,"Arch Adams St","Fort Worth",TX,"Tarrant County",76107,US
10179,"700 BLOCK  ATASCOSA AVE","700 ATASCOSA AVE","Fort Worth",TX,32.770735,-97.188913,1,range_interpolation,700,"Atascosa Ave","Fort Worth",TX,"Tarrant County",76120,US
10180,"700 BLOCK  BARDEN ST","700 BARDEN ST","Fort Worth",TX,32.751981,-97.363045,1,range_interpolation,700,"Barden St","Fort Worth",TX,"Tarrant County",76107,US
10181,"700 BLOCK  BAREBACK LN","700 BAREBACK LN","Fort Worth",TX,32.908635,-97.351928,1,range_interpolation,700,"Bareback Ln","Fort Worth",TX,"Tarrant County",76131,US
10182,"700 BLOCK  BARRYWOOD CT","700 BARRYWOOD CT","Fort Worth",TX,32.768855,-97.215429,1,range_interpolation,700,"Barrywood Ct","Fort Worth",TX,"Tarrant County",76112,US
10183,"700 BLOCK  BARRYWOOD ST","700 BARRYWOOD ST","Fort Worth",TX,32.769114,-97.215575,1,range_interpolation,700,"Barrywood St","Fort Worth",TX,"Tarrant County",76112,US
10184,"700 BLOCK  BASSET LOCKE DR","700 BASSET LOCKE DR","Fort Worth",TX,32.752574,-97.518748,1,range_interpolation,700,"Basset Locke Dr","Fort Worth",TX,"Tarrant County",76108,US
10185,"700 BLOCK  BAY LAUREL LN","700 BAY LAUREL LN","Fort Worth",TX,32.749423,-97.48927,1,range_interpolation,700,"Bay Laurel Ln","Fort Worth",TX,"Tarrant County",76108,US
10186,"700 BLOCK  BEACH ST","700 BEACH ST","Fort Worth",TX,32.757394,-97.288031,1,range_interpolation,700,"Beach St","Fort Worth",TX,"Tarrant County",76111,US
10187,"700 BLOCK  BENTON AVE","700 BENTON AVE","Fort Worth",TX,32.736809,-97.24131,1,range_interpolation,700,"Benton Ave","Fort Worth",TX,"Tarrant County",76112,US
10188,"700 BLOCK  BLANDIN ST","700 BLANDIN ST","Fort Worth",TX,32.772992,-97.306361,1,range_interpolation,700,"Blandin St","Fort Worth",TX,"Tarrant County",76111,US
10189,"700 BLOCK  BLUEBIRD ST","700 BLUEBIRD ST","Fort Worth",TX,32.60099,-97.308692,1,range_interpolation,700,"Bluebird St","Fort Worth",TX,"Tarrant County",76140,US
10190,"700 BLOCK  BUFFALO SPRINGS DR","700 BUFFALO SPRINGS DR","Fort Worth",TX,32.606225,-97.308584,1,range_interpolation,700,"Buffalo Springs Dr","Fort Worth",TX,"Tarrant County",76140,US
10191,"700 BLOCK  CALIFORNIA PKWY N","700 CALIFORNIA PKWY N","Fort Worth",TX,32.664777,-97.331817,1,range_interpolation,700,"California Pkwy N","Fort Worth",TX,"Tarrant County",76115,US
10192,"700 BLOCK  CALIFORNIA PKWY S","700 CALIFORNIA PKWY S","Fort Worth",TX,32.664013,-97.338333,0.8,street_center,,"California Pkwy S","Fort Worth",TX,"Tarrant County",76134,US
10193,"700 BLOCK  CANTON DR","700 CANTON DR","Fort Worth",TX,32.741536,-97.229123,0.8,street_center,,"Canton Dr","Fort Worth",TX,"Tarrant County",76112,US
10194,"700 BLOCK  CANYON CREEK TRL","700 CANYON CREEK TRL","Fort Worth",TX,32.770222,-97.220914,1,range_interpolation,700,"Canyon Creek Trl","Fort Worth",TX,"Tarrant County",76112,US
10195,"700 BLOCK  CARETTE DR","700 CARETTE DR","Fort Worth",TX,32.753703,-97.509435,1,range_interpolation,700,"Carette Dr","Fort Worth",TX,"Tarrant County",76108,US
10196,"700 BLOCK  CARROLL ST","700 CARROLL ST","Fort Worth",TX,32.75191,-97.354626,1,range_interpolation,700,"Carroll St","Fort Worth",TX,"Tarrant County",76107,US
10197,"700 BLOCK  CHALK KNOLL RD","700 CHALK KNOLL RD","Fort Worth",TX,32.748823,-97.487463,1,range_interpolation,700,"Chalk Knoll Rd","Fort Worth",TX,"Tarrant County",76108,US
10198,"700 BLOCK  CLIFF ST","700 CLIFF ST","Fort Worth",TX,32.793667,-97.354872,0.8,street_center,,"Cliff St","Fort Worth",TX,"Tarrant County",76164,US
10199,"700 BLOCK  COLVIN AVE","700 COLVIN AVE","Fort Worth",TX,32.713703,-97.320298,1,range_interpolation,700,"Colvin Ave","Fort Worth",TX,"Tarrant County",76104,US
10200,"700 BLOCK  COMMERCE ST","700 COMMERCE ST","Fort Worth",TX,32.753506,-97.329473,1,range_interpolation,700,"Commerce St","Fort Worth",TX,"Tarrant County",76102,US
10201,"700 BLOCK  CONNER AVE","700 CONNER AVE","Fort Worth",TX,32.737093,-97.287212,1,range_interpolation,700,"Conner Ave","Fort Worth",TX,"Tarrant County",76105,US
10202,"700 BLOCK  CROSS RIDGE CIR N","700 CROSS RIDGE CIR N","Fort Worth",TX,32.769142,-97.194501,0.9,range_interpolation,700,"Cross Ridge Cir","Fort Worth",TX,"Tarrant County",76120,US
10203,"700 BLOCK  CROSS RIDGE CT","700 CROSS RIDGE CT","Fort Worth",TX,32.769452,-97.194651,1,range_interpolation,700,"Cross Ridge Ct","Fort Worth",TX,"Tarrant County",76120,US
10204,"700 BLOCK  DEAUVILLE CIR E","700 DEAUVILLE CIR E","Fort Worth",TX,32.751399,-97.514315,1,range_interpolation,700,"Deauville Cir E","Fort Worth",TX,"Tarrant County",76108,US
10205,"700 BLOCK  DEAUVILLE CIR W","700 DEAUVILLE CIR W","Fort Worth",TX,32.752468,-97.515758,1,range_interpolation,700,"Deauville Cir W","Fort Worth",TX,"Tarrant County",76108,US
10206,"700 BLOCK  DEMA LN","700 DEMA LN","Fort Worth",TX,32.590744,-97.308672,1,range_interpolation,700,"Dema Ln",Burleson,TX,"Tarrant County",76028,US
10207,"700 BLOCK  DONNA ST","700 DONNA ST","Fort Worth",TX,32.699285,-97.320274,1,range_interpolation,700,"Donna St","Fort Worth",TX,"Tarrant County",76110,US
10208,"700 BLOCK  EAST LOOP 820","700 EAST LOOP","Fort Worth",TX,32.6785,-97.330511,0.33,place,,,"Fort Worth",TX,"Tarrant County",76115,US
10209,"700 BLOCK  EAST LOOP 820 FWY","700 EAST LOOP 820 FREEWAY","Fort Worth",TX,32.769261,-97.213389,1,range_interpolation,700,"E Loop 820","Fort Worth",TX,"Tarrant County",76112,US
10210,"700 BLOCK  EAST LOOP 820 NORTH FWY","700 EAST LOOP 820 NORTH FREEWAY","Fort Worth",TX,32.769261,-97.213389,1,range_interpolation,700,"E Loop 820 N","Fort Worth",TX,"Tarrant County",76112,US
10211,"700 BLOCK  EAST LOOP 820 SR NB","700 EAST LOOP 820 SERVICE ROAD","Fort Worth",TX,32.769261,-97.213389,1,range_interpolation,700,"E Loop 820","Fort Worth",TX,"Tarrant County",76112,US
10212,"700 BLOCK  EDGEFIELD RD","700 EDGEFIELD RD","Fort Worth",TX,32.76856,-97.376947,1,range_interpolation,700,"Edgefield Rd","Fort Worth",TX,"Tarrant County",76107,US
10213,"700 BLOCK  EDNEY ST","700 EDNEY ST","Fort Worth",TX,32.666401,-97.331842,1,range_interpolation,700,"Edney St","Fort Worth",TX,"Tarrant County",76115,US
10214,"700 BLOCK  ERNEST ST","700 ERNEST ST","Fort Worth",TX,32.737532,-97.292555,1,range_interpolation,700,"Ernest St","Fort Worth",TX,"Tarrant County",76105,US
10215,"700 BLOCK  FAIRVIEW ST","700 FAIRVIEW ST","Fort Worth",TX,32.772986,-97.295159,1,range_interpolation,700,"Fairview St","Fort Worth",TX,"Tarrant County",76111,US
10216,"700 BLOCK  FELIKS GWOZDZ PL","700 FELIKS GWOZDZ PL","Fort Worth",TX,32.728065,-97.331544,1,range_interpolation,700,"Feliks Gwozdz Pl","Fort Worth",TX,"Tarrant County",76104,US
10217,"700 BLOCK  FERNWOOD ST","700 FERNWOOD ST","Fort Worth",TX,32.772899,-97.412629,1,range_interpolation,700,"Fernwood St","Fort Worth",TX,"Tarrant County",76114,US
10218,"700 BLOCK  FLINT ST","700 FLINT ST","Fort Worth",TX,32.686509,-97.331747,1,range_interpolation,700,"Flint St","Fort Worth",TX,"Tarrant County",76115,US
10219,"700 BLOCK  FOCH ST","700 FOCH ST","Fort Worth",TX,32.751953,-97.356496,1,range_interpolation,700,"Foch St","Fort Worth",TX,"Tarrant County",76107,US
10220,"700 BLOCK  GALVESTON AVE","700 GALVESTON AVE","Fort Worth",TX,32.737071,-97.327391,1,range_interpolation,700,"Galveston Ave","Fort Worth",TX,"Tarrant County",76104,US
10221,"700 BLOCK  GRAINGER ST","700 GRAINGER ST","Fort Worth",TX,32.73729,-97.330945,1,range_interpolation,700,"Grainger St","Fort Worth",TX,"Tarrant County",76104,US
10222,"700 BLOCK  GRAND AVE","700 GRAND AVE","Fort Worth",TX,32.771081,-97.349123,1,range_interpolation,700,"Grand Ave","Fort Worth",TX,"Tarrant County",76164,US
10223,"700 BLOCK  GRANITE RIDGE DR","700 GRANITE RIDGE DR","Fort Worth",TX,32.840283,-97.372392,1,range_interpolation,700,"Granite Ridge Dr","Fort Worth",TX,"Tarrant County",76179,US
10224,"700 BLOCK  HAMSTED ST","700 HAMSTED ST","Fort Worth",TX,32.665441,-97.331825,1,range_interpolation,700,"Hamsted St","Fort Worth",TX,"Tarrant County",76115,US
10225,"700 BLOCK  HARVEY ST","700 HARVEY ST","Fort Worth",TX,32.581521,-97.353426,0.8,street_center,,"Harvey St",Crowley,TX,"Tarrant County",76036,US
10226,"700 BLOCK  HAVEN LN","700 HAVEN LN","Fort Worth",TX,32.768945,-97.238126,1,range_interpolation,700,"Haven Ln","Fort Worth",TX,"Tarrant County",76112,US
10227,"700 BLOCK  HAYNES AVE","700 HAYNES AVE","Fort Worth",TX,32.737705,-97.268201,1,range_interpolation,700,"Haynes Ave","Fort Worth",TX,"Tarrant County",76103,US
10228,"700 BLOCK  HEIGHTS DR","700 HEIGHTS DR","Fort Worth",TX,32.768945,-97.238126,1,range_interpolation,700,"H8ths Dr","Fort Worth",TX,"Tarrant County",76112,US
10229,"700 BLOCK  HEMPHILL ST","700 HEMPHILL ST","Fort Worth",TX,32.737197,-97.331822,1,range_interpolation,700,"Hemphill St","Fort Worth",TX,"Tarrant County",76104,US
10230,"700 BLOCK  HENDERSON ST","700 HENDERSON ST","Fort Worth",TX,32.758792,-97.343443,1,range_interpolation,700,"N Henderson St","Fort Worth",TX,"Tarrant County",76107,US
10231,"700 BLOCK  HODGSON ST","700 HODGSON ST","Fort Worth",TX,32.667208,-97.331824,1,range_interpolation,700,"Hodgson St","Fort Worth",TX,"Tarrant County",76115,US
10232,"700 BLOCK  HOUSTON ST","700 HOUSTON ST","Fort Worth",TX,32.752701,-97.331047,1,range_interpolation,700,"Houston St","Fort Worth",TX,"Tarrant County",76102,US
10233,"700 BLOCK  ISBELL RD","700 ISBELL RD","Fort Worth",TX,32.769497,-97.38615,1,range_interpolation,700,"Isbell Rd","Fort Worth",TX,"Tarrant County",76114,US
10234,"700 BLOCK  JOSEPH LN","700 JOSEPH LN","Fort Worth",TX,32.737737,-97.23709,1,range_interpolation,700,"Joseph Ln","Fort Worth",TX,"Tarrant County",76112,US
10235,"700 BLOCK  KARNES ST","700 KARNES ST","Fort Worth",TX,32.772945,-97.29649,1,range_interpolation,700,"Karnes St","Fort Worth",TX,"Tarrant County",76111,US
10236,"700 BLOCK  KELLEY CT","700 KELLEY CT","Fort Worth",TX,32.77072,-97.191271,1,range_interpolation,700,"Kelley Ct","Fort Worth",TX,"Tarrant County",76120,US
10237,"700 BLOCK  LAMONT ST","700 LAMONT ST","Fort Worth",TX,32.69762,-97.320289,1,range_interpolation,700,"Lamont St","Fort Worth",TX,"Tarrant County",76110,US
10238,"700 BLOCK  LEISURE DR","700 LEISURE DR","Fort Worth",TX,32.769831,-97.17009,1,range_interpolation,700,"Leisure Dr","Fort Worth",TX,"Tarrant County",76120,US
10239,"700 BLOCK  LIONEL WAY","700 LIONEL WAY","Fort Worth",TX,32.752983,-97.508966,1,range_interpolation,700,"Lionel Way","Fort Worth",TX,"Tarrant County",76108,US
10240,"700 BLOCK  LITTLE FOX LN","700 LITTLE FOX LN","Fort Worth",TX,32.750338,-97.499497,1,range_interpolation,700,"Little Fox Ln","Fort Worth",TX,"Tarrant County",76108,US
10241,"700 BLOCK  LLOYD AVE","700 LLOYD AVE","Fort Worth",TX,32.737233,-97.255097,1,range_interpolation,700,"Lloyd Ave","Fort Worth",TX,"Tarrant County",76103,US
10242,"700 BLOCK  MAIN ST","700 MAIN ST","Fort Worth",TX,32.75309,-97.330284,1,range_interpolation,700,"Main St","Fort Worth",TX,"Tarrant County",76102,US
10243,"700 BLOCK  MARION AVE","700 MARION AVE","Fort Worth",TX,32.716301,-97.320314,1,range_interpolation,700,"Marion Ave","Fort Worth",TX,"Tarrant County",76104,US
10244,"700 BLOCK  MARTIN LUTHER KING FWY","700 MARTIN LUTHER KING FREEWAY","Fort Worth",TX,32.737098,-97.298489,0.8,range_interpolation,700,"Martin Luther King Fwy","Fort Worth",TX,"Tarrant County",76104,US
10245,"700 BLOCK  MAY ST","700 MAY ST","Fort Worth",TX,32.737078,-97.329085,1,range_interpolation,700,"May St","Fort Worth",TX,"Tarrant County",76104,US
10246,"700 BLOCK  MEXICALI WAY","700 MEXICALI WAY","Fort Worth",TX,32.985013,-97.372622,1,range_interpolation,700,"Mexicali Way",Haslet,TX,"Tarrant County",76052,US
10247,"700 BLOCK  MILL WATER DR","700 MILL WATER DR","Fort Worth",TX,32.771419,-97.291484,0.33,place,,,"Fort Worth",TX,"Tarrant County",76101,US
10248,"700 BLOCK  NELSON PL","700 NELSON PL","Fort Worth",TX,32.668535,-97.491135,0.8,street_center,,"Nelson Dr","Fort Worth",TX,"Tarrant County",76126,US
10249,"700 BLOCK  NORTH FWY SR NB","700 NORTH FREEWAY SERVICE ROAD","Fort Worth",TX,32.772582,-97.318712,1,range_interpolation,700,"North Fwy","Fort Worth",TX,"Tarrant County",76102,US
10250,"700 BLOCK  NORTH FWY SR SB","700 NORTH FREEWAY SERVICE ROAD","Fort Worth",TX,32.772582,-97.318712,1,range_interpolation,700,"North Fwy","Fort Worth",TX,"Tarrant County",76102,US
10251,"700 BLOCK  NORTH SOUTH FWY","700 NORTH SOUTH FREEWAY","Fort Worth",TX,32.749425,-97.320675,1,range_interpolation,700,"N South Fwy","Fort Worth",TX,"Tarrant County",76102,US
10252,"700 BLOCK  OAKWOOD TRL","700 OAKWOOD TRL","Fort Worth",TX,32.768737,-97.227809,1,range_interpolation,700,"Oakwood Trl","Fort Worth",TX,"Tarrant County",76112,US
10253,"700 BLOCK  PAGE ST","700 PAGE ST","Fort Worth",TX,32.716461,-97.33159,1,range_interpolation,700,"Page St","Fort Worth",TX,"Tarrant County",76110,US
10254,"700 BLOCK  PAINT PONY TRL N","700 PAINT PONY TRL N","Fort Worth",TX,32.774413,-97.498255,1,range_interpolation,700,"Paint Pony Trl N","Fort Worth",TX,"Tarrant County",76108,US
10255,"700 BLOCK  PARK ST","700 PARK ST","Fort Worth",TX,32.779763,-97.357455,1,range_interpolation,700,"Park St","Fort Worth",TX,"Tarrant County",76106,US
10256,"700 BLOCK  PARKDALE AVE","700 PARKDALE AVE","Fort Worth",TX,32.737532,-97.288534,1,range_interpolation,700,"Parkdale Ave","Fort Worth",TX,"Tarrant County",76105,US
10257,"700 BLOCK  PENNSYLVANIA AVE","700 PENNSYLVANIA AVE","Fort Worth",TX,32.738292,-97.331801,1,range_interpolation,700,"Pennsylvania Ave","Fort Worth",TX,"Tarrant County",76104,US
10258,"700 BLOCK  PONCHO LN","700 PONCHO LN","Fort Worth",TX,32.987299,-97.372898,1,range_interpolation,700,"Poncho Ln",Haslet,TX,"Tarrant County",76052,US
10259,"700 BLOCK  REVEILLE RD","700 REVEILLE RD","Fort Worth",TX,32.750829,-97.4976,1,range_interpolation,700,"Reveille Rd","Fort Worth",TX,"Tarrant County",76108,US
10260,"700 BLOCK  RIVER GARDEN DR","700 RIVER GARDEN DR","Fort Worth",TX,32.772586,-97.413846,1,range_interpolation,700,"River Garden Dr","Fort Worth",TX,"Tarrant County",76114,US
10261,"700 BLOCK  RIVERFLAT DR","700 RIVERFLAT DR","Fort Worth",TX,32.838531,-97.372508,1,range_interpolation,700,"Riverflat Dr","Fort Worth",TX,"Tarrant County",76179,US
10262,"700 BLOCK  RIVERSIDE DR","700 RIVERSIDE DR","Fort Worth",TX,32.772997,-97.301639,1,range_interpolation,700,"Riverside Dr","Fort Worth",TX,"Tarrant County",76111,US
10263,"700 BLOCK  SADDLEWAY DR","700 SADDLEWAY DR","Fort Worth",TX,32.846802,-97.375176,1,range_interpolation,700,"Saddleway Dr","Fort Worth",TX,"Tarrant County",76179,US
10264,"700 BLOCK  SALIDA RD","700 SALIDA RD","Fort Worth",TX,32.656313,-97.243226,0.8,street_center,,"Salt Rd","Fort Worth",TX,"Tarrant County",76140,US
10265,"700 BLOCK  SAM CALLOWAY RD","700 SAM CALLOWAY RD","Fort Worth",TX,32.765154,-97.405248,0.8,street_center,,"Sam Calloway Rd","Fort Worth",TX,"Tarrant County",76114,US
10266,"700 BLOCK  SAMUELS AVE","700 SAMUELS AVE","Fort Worth",TX,32.766296,-97.329552,1,range_interpolation,700,"Samuels Ave","Fort Worth",TX,"Tarrant County",76102,US
10267,"700 BLOCK  SAN FELIPE TRL","700 SAN FELIPE TRL","Fort Worth",TX,32.851869,-97.27974,0.8,street_center,,"San Felipe Dr","Fort Worth",TX,"Tarrant County",76137,US
10268,"700 BLOCK  SANTA CLARA DR","700 SANTA CLARA DR","Fort Worth",TX,32.752158,-97.405774,1,range_interpolation,700,"Santa Clara Dr","Fort Worth",TX,"Tarrant County",76114,US
10269,"700 BLOCK  SANTA ROSA DR","700 SANTA ROSA DR","Fort Worth",TX,32.988578,-97.374228,1,range_interpolation,700,"Santa Rosa Dr",Haslet,TX,"Tarrant County",76052,US
10270,"700 BLOCK  SARGENT ST","700 SARGENT ST","Fort Worth",TX,32.73761,-97.263783,0.9,range_interpolation,700,"S Sargent St","Fort Worth",TX,"Tarrant County",76103,US
10271,"700 BLOCK  SOUTH FWY NB","700 SOUTH FREEWAY","Fort Worth",TX,32.737509,-97.320838,1,range_interpolation,700,"South Fwy","Fort Worth",TX,"Tarrant County",76104,US
10272,"700 BLOCK  SOUTH FWY SR SB","700 SOUTH FREEWAY SERVICE ROAD","Fort Worth",TX,32.737509,-97.320838,1,range_interpolation,700,"South Fwy","Fort Worth",TX,"Tarrant County",76104,US
10273,"700 BLOCK  SOUTHEAST LOOP 820 FWY","700 SOUTHEAST LOOP 820 FREEWAY","Fort Worth",TX,32.668032,-97.312932,1,range_interpolation,700,"SE Loop 820","Fort Worth",TX,"Tarrant County",76134,US
10274,"700 BLOCK  SOUTHWEST LOOP 820","700 SOUTHWEST LOOP","Fort Worth",TX,32.771419,-97.291484,0.33,place,,,"Fort Worth",TX,"Tarrant County",76101,US
10275,"700 BLOCK  SPARROW WOOD CT","700 SPARROW WOOD CT","Fort Worth",TX,32.770033,-97.226779,1,range_interpolation,700,"Sparrow Wood Ct","Fort Worth",TX,"Tarrant County",76112,US
10276,"700 BLOCK  STONE WATER DR","700 STONE WATER DR","Fort Worth",TX,32.82254,-97.496878,0.8,street_center,,"Stone Dr","Fort Worth",TX,"Tarrant County",76108,US
10277,"700 BLOCK  SUNRISE CT","700 SUNRISE CT","Fort Worth",TX,32.770157,-97.193081,1,range_interpolation,700,"Sunrise Ct","Fort Worth",TX,"Tarrant County",76120,US
10278,"700 BLOCK  SYCAMORE SCHOOL RD","700 SYCAMORE SCHOOL RD","Fort Worth",TX,32.634656,-97.363526,0.8,street_center,,"Sycamore School Rd","Fort Worth",TX,"Tarrant County",76133,US
10279,"700 BLOCK  SYCAMORE ST","700 SYCAMORE ST","Fort Worth",TX,32.737467,-97.296799,1,range_interpolation,700,"Sycamore St","Fort Worth",TX,"Tarrant County",76104,US
10280,"700 BLOCK  TASMAN ST","700 TASMAN ST","Fort Worth",TX,32.662022,-97.332158,1,range_interpolation,700,"Tasman St","Fort Worth",TX,"Tarrant County",76134,US
10281,"700 BLOCK  TAYLOR ST","700 TAYLOR ST","Fort Worth",TX,32.751944,-97.332651,1,range_interpolation,700,"Taylor St","Fort Worth",TX,"Tarrant County",76102,US
10282,"700 BLOCK  THROCKMORTON ST","700 THROCKMORTON ST","Fort Worth",TX,32.752313,-97.331831,1,range_interpolation,700,"Throckmorton St","Fort Worth",TX,"Tarrant County",76102,US
10283,"700 BLOCK  TIERNEY RD","700 TIERNEY RD","Fort Worth",TX,32.73698,-97.24523,0.9,range_interpolation,700,"S Tierney Rd","Fort Worth",TX,"Tarrant County",76112,US
10284,"700 BLOCK  TUSCANY TRL","700 TUSCANY TRL","Fort Worth",TX,32.83924,-97.372714,1,range_interpolation,700,"Tuscany Trl","Fort Worth",TX,"Tarrant County",76179,US
10285,"700 BLOCK  VISTA VERDE DR","700 VISTA VERDE DR","Fort Worth",TX,32.769634,-97.179874,1,range_interpolation,700,"Vista Verde Dr","Fort Worth",TX,"Tarrant County",76120,US
10286,"700 BLOCK  WEST LOOP 820 NORTH","700 WEST LOOP 820 NORTH","Fort Worth",TX,32.769261,-97.213389,1,range_interpolation,700,"E Loop 820 N","Fort Worth",TX,"Tarrant County",76112,US
10287,"700 BLOCK  WEST LOOP 820 NORTH FWY","700 WEST LOOP 820 NORTH FREEWAY","Fort Worth",TX,32.769261,-97.213389,1,range_interpolation,700,"E Loop 820 N","Fort Worth",TX,"Tarrant County",76112,US
10288,"700 BLOCK  WEST LOOP 820 SOUTH","700 WEST LOOP 820 SOUTH","Fort Worth",TX,32.736798,-97.479091,0.8,street_center,,"S Loop 820","Fort Worth",TX,"Tarrant County",76116,US
10289,"700 BLOCK  WESTERN STAR DR","700 WESTERN STAR DR","Fort Worth",TX,32.842036,-97.371546,0.8,street_center,,"Western Star Dr","Fort Worth",TX,"Tarrant County",76179,US
10290,"700 BLOCK  WINNIE ST","700 WINNIE ST","Fort Worth",TX,32.737735,-97.236429,1,range_interpolation,700,"Winnie St","Fort Worth",TX,"Tarrant County",76112,US
10291,"700 BLOCK  WOODROW AVE","700 WOODROW AVE","Fort Worth",TX,32.737503,-97.291556,1,range_interpolation,700,"Woodrow Ave","Fort Worth",TX,"Tarrant County",76105,US
10292,"700 BLOCK D AMERICAN FLYER BL","700 AMERICAN FLYER BL","Fort Worth",TX,32.7531,-97.513598,1,range_interpolation,700,"American Flyer Blvd","Fort Worth",TX,"Tarrant County",76108,US
10293,"700 BLOCK D CHAPEL CREEK BL","700 CHAPEL CREEK BL","Fort Worth",TX,32.752605,-97.505541,1,range_interpolation,700,"Chapel Creek Blvd","Fort Worth",TX,"Tarrant County",76108,US
10294,"700 BLOCK D EIGHT TWENTY BL","700 EIGHT TWENTY BL","Fort Worth",TX,32.832945,-97.347701,1,range_interpolation,700,"8th Twenty Blvd","Fort Worth",TX,"Tarrant County",76106,US
10295,"700 BLOCK D FAY BL","700 FAY BL","Fort Worth",TX,32.770347,-97.203371,1,range_interpolation,700,"Fay Blvd","Fort Worth",TX,"Tarrant County",76120,US
10296,"700 BLOCK D MEACHAM BL","700 MEACHAM BL","Fort Worth",TX,32.8244,-97.310565,0.8,street_center,,"Meacham Blvd","Fort Worth",TX,"Tarrant County",76111,US
10297,"700 BLOCK D OAKLAND BL","700 OAKLAND BL","Fort Worth",TX,32.737622,-97.261945,0.9,range_interpolation,700,"S Oakland Blvd","Fort Worth",TX,"Tarrant County",76103,US
10298,"700 BLOCK D VICKERY BL","700 VICKERY BL","Fort Worth",TX,32.743203,-97.319006,1,range_interpolation,700,"E Vickery Blvd","Fort Worth",TX,"Tarrant County",76104,US
10299,"700 BLOCK D WEILER BL","700 WEILER BL","Fort Worth",TX,32.737012,-97.23409,1,range_interpolation,700,"Weiler Blvd","Fort Worth",TX,"Tarrant County",76112,US
10300,"700 BLOCK G HEIGHTS DR","700 HEIGHTS DR","Fort Worth",TX,32.768945,-97.238126,1,range_interpolation,700,"H8ths Dr","Fort Worth",TX,"Tarrant County",76112,US
10301,"700 BLOCK W SEMINARY DR","700 W SEMINARY DR","Fort Worth",TX,32.684654,-97.331755,1,range_interpolation,700,"W Seminary Dr","Fort Worth",TX,"Tarrant County",76115,US
10302,"7000 BLOCK  BENBROOK LAKE DR","7000 BENBROOK LAKE DR","Fort Worth",TX,32.646758,-97.445088,0.8,street_center,,"Benbrook Lake Dr","Fort Worth",TX,"Tarrant County",76179,US
10303,"7000 BLOCK  BITTERSWEET DR","7000 BITTERSWEET DR","Fort Worth",TX,32.765103,-97.20803,1,range_interpolation,7000,"Bittersweet Dr","Fort Worth",TX,"Tarrant County",76120,US
10304,"7000 BLOCK  BOB HANGER ST","7000 BOB HANGER ST","Fort Worth",TX,32.863218,-97.411109,1,range_interpolation,7000,"Bob Hanger St","Fort Worth",TX,"Tarrant County",76179,US
10305,"7000 BLOCK  BOXWOOD DR","7000 BOXWOOD DR","Fort Worth",TX,32.763891,-97.208425,1,range_interpolation,7000,"Boxwood Dr","Fort Worth",TX,"Tarrant County",76120,US
10306,"7000 BLOCK  BRIARWILD CT","7000 BRIARWILD CT","Fort Worth",TX,32.644975,-97.391189,1,range_interpolation,7000,"Briarwild Ct","Fort Worth",TX,"Tarrant County",76133,US
10307,"7000 BLOCK  BRIERHILL CT","7000 BRIERHILL CT","Fort Worth",TX,32.647749,-97.430127,1,range_interpolation,7000,"Brierhill Ct","Fort Worth",TX,"Tarrant County",76132,US
10308,"7000 BLOCK  BUTTONWOOD DR","7000 BUTTONWOOD DR","Fort Worth",TX,32.867665,-97.297647,1,range_interpolation,7000,"Buttonwood Dr","Fort Worth",TX,"Tarrant County",76137,US
10309,"7000 BLOCK  CALMONT AVE","7000 CALMONT AVE","Fort Worth",TX,32.734205,-97.438142,1,range_interpolation,7000,"Calmont Ave","Fort Worth",TX,"Tarrant County",76116,US
10310,"7000 BLOCK  CATTLE DR","7000 CATTLE DR","Fort Worth",TX,32.868522,-97.432561,1,range_interpolation,7000,"Cattle Dr","Fort Worth",TX,"Tarrant County",76179,US
10311,"7000 BLOCK  CHASE RIDGE TRL","7000 CHASE RIDGE TRL","Fort Worth",TX,32.867223,-97.313835,1,range_interpolation,7000,"Chase Ridge Trl","Fort Worth",TX,"Tarrant County",76137,US
10312,"7000 BLOCK  CULVER AVE","7000 CULVER AVE","Fort Worth",TX,32.704542,-97.434683,1,range_interpolation,7000,"Culver Ave","Fort Worth",TX,"Tarrant County",76116,US
10313,"7000 BLOCK  DEER RIDGE DR","7000 DEER RIDGE DR","Fort Worth",TX,32.868463,-97.272783,1,range_interpolation,7000,"Deer Ridge Dr","Fort Worth",TX,"Tarrant County",76137,US
10314,"7000 BLOCK  DEEWOOD CT","7000 DEEWOOD CT","Fort Worth",TX,32.73868,-97.207937,1,range_interpolation,7000,"Deewood Ct","Fort Worth",TX,"Tarrant County",76112,US
10315,"7000 BLOCK  DERBYSHIRE DR","7000 DERBYSHIRE DR","Fort Worth",TX,32.866688,-97.309261,1,range_interpolation,7000,"Derbyshire Dr","Fort Worth",TX,"Tarrant County",76137,US
10316,"7000 BLOCK  EAST FWY","7000 EAST FREEWAY","Fort Worth",TX,32.6785,-97.330511,0.33,place,,,"Fort Worth",TX,"Tarrant County",76115,US
10317,"7000 BLOCK  EGRET DR","7000 EGRET DR","Fort Worth",TX,32.765731,-97.205731,1,range_interpolation,7000,"Egret Dr","Fort Worth",TX,"Tarrant County",76120,US
10318,"7000 BLOCK  FALLING SPRINGS RD","7000 FALLING SPRINGS RD","Fort Worth",TX,32.69467,-97.43204,1,range_interpolation,7000,"Falling Springs Rd","Fort Worth",TX,"Tarrant County",76116,US
10319,"7000 BLOCK  GILLIS JOHNSON ST","7000 GILLIS JOHNSON ST","Fort Worth",TX,32.863001,-97.4126,1,range_interpolation,7000,"Gillis Johnson St","Fort Worth",TX,"Tarrant County",76179,US
10320,"7000 BLOCK  GRANBURY RD","7000 GRANBURY RD","Fort Worth",TX,32.646256,-97.40976,1,range_interpolation,7000,"Granbury Rd","Fort Worth",TX,"Tarrant County",76123,US
10321,"7000 BLOCK  GREENVIEW CIR N","7000 GREENVIEW CIR N","Fort Worth",TX,32.773543,-97.207057,1,range_interpolation,7000,"Greenview Cir N","Fort Worth",TX,"Tarrant County",76120,US
10322,"7000 BLOCK  GREENVIEW CIR S","7000 GREENVIEW CIR S","Fort Worth",TX,32.773519,-97.205027,1,range_interpolation,7000,"Greenview Cir S","Fort Worth",TX,"Tarrant County",76120,US
10323,"7000 BLOCK  HIGHTOWER ST","7000 HIGHTOWER ST","Fort Worth",TX,32.74313,-97.209851,1,range_interpolation,7000,"Hightower St","Fort Worth",TX,"Tarrant County",76112,US
10324,"7000 BLOCK  JACK NEWELL BLVD S","7000 JACK NEWELL BLVD S","Fort Worth",TX,32.78457,-97.226547,1,range_interpolation,7000,"Jack Newell Blvd S","Fort Worth",TX,"Tarrant County",76118,US
10325,"7000 BLOCK  JEWELL AVE","7000 JEWELL AVE","Fort Worth",TX,32.743942,-97.209849,1,range_interpolation,7000,"Jewell Ave","Fort Worth",TX,"Tarrant County",76112,US
10326,"7000 BLOCK  JIM WRIGHT FREEWAY N","7000 JIM WRIGHT FREEWAY N","Fort Worth",TX,32.755257,-97.47935,0.8,street_center,,"Jim Wright Fwy S","Fort Worth",TX,"Tarrant County",76108,US
10327,"7000 BLOCK  JOHN T WHITE RD","7000 JOHN T WHITE RD","Fort Worth",TX,32.766018,-97.208422,1,range_interpolation,7000,"John T White Rd","Fort Worth",TX,"Tarrant County",76120,US
10328,"7000 BLOCK  LAKESIDE DR","7000 LAKESIDE DR","Fort Worth",TX,32.82078,-97.423593,0.8,street_center,,"Lakeside Dr","Fort Worth",TX,"Tarrant County",76135,US
10329,"7000 BLOCK  MARTHA LN","7000 MARTHA LN","Fort Worth",TX,32.746762,-97.208969,1,range_interpolation,7000,"Martha Ln","Fort Worth",TX,"Tarrant County",76112,US
10330,"7000 BLOCK  MARVIN BROWN ST","7000 MARVIN BROWN ST","Fort Worth",TX,32.863162,-97.414153,1,range_interpolation,7000,"Marvin Brown St","Fort Worth",TX,"Tarrant County",76179,US
10331,"7000 BLOCK  NORMA ST","7000 NORMA ST","Fort Worth",TX,32.742177,-97.209845,1,range_interpolation,7000,"Norma St","Fort Worth",TX,"Tarrant County",76112,US
10332,"7000 BLOCK  NORTH FWY SR NB","7000 NORTH FREEWAY SERVICE ROAD","Fort Worth",TX,32.795731,-97.32314,0.8,street_center,,"North Fwy","Fort Worth",TX,"Tarrant County",76106,US
10333,"7000 BLOCK  NORTH FWY SR SB","7000 NORTH FREEWAY SERVICE ROAD","Fort Worth",TX,32.795731,-97.32314,0.8,street_center,,"North Fwy","Fort Worth",TX,"Tarrant County",76106,US
10334,"7000 BLOCK  NORTHWEST LOOP 820 FWY","7000 NORTHWEST LOOP 820 FREEWAY","Fort Worth",TX,32.797376,-97.440208,0.9,range_interpolation,7000,"NW Loop 820 E","Fort Worth",TX,"Tarrant County",76135,US
10335,"7000 BLOCK  OVERHILL RD","7000 OVERHILL RD","Fort Worth",TX,32.706478,-97.435606,1,range_interpolation,7000,"Overhill Rd","Fort Worth",TX,"Tarrant County",76116,US
10336,"7000 BLOCK  PINON ST","7000 PINON ST","Fort Worth",TX,32.702453,-97.435252,1,range_interpolation,7000,"Pinon St","Fort Worth",TX,"Tarrant County",76116,US
10337,"7000 BLOCK  RIDGMAR MEADOW RD","7000 RIDGMAR MEADOW RD","Fort Worth",TX,32.737397,-97.42499,0.8,street_center,,"Ridgmar Blvd","Fort Worth",TX,"Tarrant County",76116,US
10338,"7000 BLOCK  RIVERPORT RD","7000 RIVERPORT RD","Fort Worth",TX,32.695596,-97.430554,1,range_interpolation,7000,"Riverport Rd","Fort Worth",TX,"Tarrant County",76116,US
10339,"7000 BLOCK  ROCKDALE RD","7000 ROCKDALE RD","Fort Worth",TX,32.640241,-97.327491,0.8,street_center,,"Rockdale Rd","Fort Worth",TX,"Tarrant County",76134,US
10340,"7000 BLOCK  ROSE LEA CT","7000 ROSE LEA CT","Fort Worth",TX,32.867109,-97.28405,1,range_interpolation,7000,"Rose Lea Ct","Fort Worth",TX,"Tarrant County",76137,US
10341,"7000 BLOCK  SETON HALL DR","7000 SETON HALL DR","Fort Worth",TX,32.76662,-97.206116,1,range_interpolation,7000,"Seton Hall Dr","Fort Worth",TX,"Tarrant County",76120,US
10342,"7000 BLOCK  SHADOW BEND DR","7000 SHADOW BEND DR","Fort Worth",TX,32.868636,-97.298172,1,range_interpolation,7000,"Shadow Bend Dr","Fort Worth",TX,"Tarrant County",76137,US
10343,"7000 BLOCK  SOUTH FWY SR NB","7000 SOUTH FREEWAY SERVICE ROAD","Fort Worth",TX,32.643494,-97.321772,1,range_interpolation,7000,"South Fwy","Fort Worth",TX,"Tarrant County",76134,US
10344,"7000 BLOCK  SOUTH FWY SR SB","7000 SOUTH FREEWAY SERVICE ROAD","Fort Worth",TX,32.643494,-97.321772,1,range_interpolation,7000,"South Fwy","Fort Worth",TX,"Tarrant County",76134,US
10345,"7000 BLOCK  SOUTHWEST BLVD SR WB","7000 SOUTHWEST BLVD SERVICE ROAD","Fort Worth",TX,32.70128,-97.429167,0.8,street_center,,"Southwest Blvd","Fort Worth",TX,"Tarrant County",76116,US
10346,"7000 BLOCK  SPARROW PT","7000 SPARROW PT","Fort Worth",TX,32.643343,-97.384766,1,range_interpolation,7000,"Sparrow Pt","Fort Worth",TX,"Tarrant County",76133,US
10347,"7000 BLOCK  SUNDAY PL","7000 SUNDAY PL","Fort Worth",TX,32.641462,-97.380431,1,range_interpolation,7000,"Sunday Pl","Fort Worth",TX,"Tarrant County",76133,US
10348,"7000 BLOCK  SUNNYBANK DR","7000 SUNNYBANK DR","Fort Worth",TX,32.866464,-97.288067,1,range_interpolation,7000,"Sunnybank Dr","Fort Worth",TX,"Tarrant County",76137,US
10349,"7000 BLOCK  SYLVAN MEADOWS DR","7000 SYLVAN MEADOWS DR","Fort Worth",TX,32.768888,-97.206668,1,range_interpolation,7000,"Sylvan Meadows Dr","Fort Worth",TX,"Tarrant County",76120,US
10350,"7000 BLOCK  TEAL DR","7000 TEAL DR","Fort Worth",TX,32.866154,-97.27636,1,range_interpolation,7000,"Teal Dr","Fort Worth",TX,"Tarrant County",76137,US
10351,"7000 BLOCK  TERRA MEADOWS LN","7000 TERRA MEADOWS LN","Fort Worth",TX,32.866654,-97.312606,1,range_interpolation,7000,"Terra Meadows Ln","Fort Worth",TX,"Tarrant County",76137,US
10352,"7000 BLOCK  TUMBLING TRL","7000 TUMBLING TRL","Fort Worth",TX,32.698011,-97.431384,1,range_interpolation,7000,"Tumbling Trl","Fort Worth",TX,"Tarrant County",76116,US
10353,"7000 BLOCK  VAN NATTA LN","7000 VAN NATTA LN","Fort Worth",TX,32.740448,-97.209845,1,range_interpolation,7000,"Van Natta Ln","Fort Worth",TX,"Tarrant County",76112,US
10354,"7000 BLOCK  WAYFARER TRL","7000 WAYFARER TRL","Fort Worth",TX,32.869328,-97.300514,1,range_interpolation,7000,"Wayfarer Trl","Fort Worth",TX,"Tarrant County",76137,US
10355,"7000 BLOCK  WEATHERWOOD RD","7000 WEATHERWOOD RD","Fort Worth",TX,32.641902,-97.379495,1,range_interpolation,7000,"Weatherwood Rd","Fort Worth",TX,"Tarrant County",76133,US
10356,"7000 BLOCK  WELCH CT","7000 WELCH CT","Fort Worth",TX,32.642966,-97.383924,1,range_interpolation,7000,"Welch Ct","Fort Worth",TX,"Tarrant County",76133,US
10357,"7000 BLOCK  WELSHMAN DR","7000 WELSHMAN DR","Fort Worth",TX,32.868334,-97.311475,1,range_interpolation,7000,"Welshman Dr","Fort Worth",TX,"Tarrant County",76137,US
10358,"7000 BLOCK  WEST FWY SR WB","7000 WEST FREEWAY SERVICE ROAD","Fort Worth",TX,32.733054,-97.380445,0.8,street_center,,"West Fwy","Fort Worth",TX,"Tarrant County",76107,US
10359,"7000 BLOCK  WHITEWOOD DR","7000 WHITEWOOD DR","Fort Worth",TX,32.867241,-97.29354,1,range_interpolation,7000,"Whitewood Dr","Fort Worth",TX,"Tarrant County",76137,US
10360,"7000 BLOCK  WILDHAVEN DR","7000 WILDHAVEN DR","Fort Worth",TX,32.866484,-97.289294,1,range_interpolation,7000,"Wildhaven Dr","Fort Worth",TX,"Tarrant County",76137,US
10361,"7000 BLOCK  WILLIS AVE","7000 WILLIS AVE","Fort Worth",TX,32.705868,-97.434795,1,range_interpolation,7000,"Willis Ave","Fort Worth",TX,"Tarrant County",76116,US
10362,"7000 BLOCK  WILLOWVIEW","7000 WILLOWVIEW","Fort Worth",TX,32.640393,-97.367066,1,range_interpolation,7000,"Willowview St","Fort Worth",TX,"Tarrant County",76133,US
10363,"7000 BLOCK  WIND CHIME DR","7000 WIND CHIME DR","Fort Worth",TX,32.644339,-97.392938,1,range_interpolation,7000,"Wind Chime Dr","Fort Worth",TX,"Tarrant County",76133,US
10364,"7000 BLOCK  WOODACRE RD","7000 WOODACRE RD","Fort Worth",TX,32.643022,-97.375192,1,range_interpolation,7000,"Woodacre Rd","Fort Worth",TX,"Tarrant County",76133,US
10365,"7000 BLOCK  WOODWAY DR","7000 WOODWAY DR","Fort Worth",TX,32.642707,-97.37602,1,range_interpolation,7000,"Woodway Dr","Fort Worth",TX,"Tarrant County",76133,US
10366,"7000 BLOCK D ANDERSON BL","7000 ANDERSON BL","Fort Worth",TX,32.761865,-97.207645,1,range_interpolation,7000,"Anderson Blvd","Fort Worth",TX,"Tarrant County",76120,US
10367,"7000 BLOCK D CAMP BOWIE BL","7000 CAMP BOWIE BL","Fort Worth",TX,32.734218,-97.402507,0.8,street_center,,"Camp Bowie Blvd","Fort Worth",TX,"Tarrant County",76107,US
10368,"7000 BLOCK D CAMP BOWIE WEST BL","7000 CAMP BOWIE WEST BL","Fort Worth",TX,32.734218,-97.402507,0.8,street_center,,"Camp Bowie Blvd","Fort Worth",TX,"Tarrant County",76107,US
10369,"7000 BLOCK D MIRA VISTA BL","7000 MIRA VISTA BL","Fort Worth",TX,32.65475,-97.442644,1,range_interpolation,7000,"Mira Vista Blvd","Fort Worth",TX,"Tarrant County",76132,US
10370,"7000 BLOCK D SANDSHELL BL","7000 SANDSHELL BL","Fort Worth",TX,32.867207,-97.311813,0.9,range_interpolation,7000,"Sandshell Blvd","Fort Worth",TX,"Tarrant County",76137,US
10371,"7000 BLOCK D VICKERY BL","7000 VICKERY BL","Fort Worth",TX,32.739108,-97.306604,0.8,street_center,,"E Vickery Blvd","Fort Worth",TX,"Tarrant County",76104,US
10372,"7000 BLOCK D WILL ROGERS BL","7000 WILL ROGERS BL","Fort Worth",TX,32.645301,-97.312868,1,range_interpolation,7000,"Will Rogers Blvd","Fort Worth",TX,"Tarrant County",76140,US
10373,"7000 BLOCK F BAR TRL","7000 F BAR TRL","Fort Worth",TX,32.595293,-97.499656,0.8,street_center,,"Bear Trl","Fort Worth",TX,"Tarrant County",76126,US
10374,"7000 BLOCK IH 820 WB","7000 INTERSTATE 820","Fort Worth",TX,32.794277,-97.212406,0.8,street_center,,"I- 820","Fort Worth",TX,"Tarrant County",76118,US
10375,"7000 BLOCK L SETON HA","7000 L SETON HA","Fort Worth",TX,32.673798,-97.421798,0.8,street_center,,"Sutton Cir","Fort Worth",TX,"Tarrant County",76132,US
10376,"7100 BLOCK  ASPEN WOOD TRL","7100 ASPEN WOOD TRL","Fort Worth",TX,32.647961,-97.422986,1,range_interpolation,7100,"Aspen Wood Trl","Fort Worth",TX,"Tarrant County",76132,US
10377,"7100 BLOCK  AVINGTON WAY","7100 AVINGTON WAY","Fort Worth",TX,32.639529,-97.354438,1,range_interpolation,7100,"Avington Way","Fort Worth",TX,"Tarrant County",76133,US
10378,"7100 BLOCK  BAIRD DR","7100 BAIRD DR","Fort Worth",TX,32.643579,-97.344389,1,range_interpolation,7100,"Baird Dr","Fort Worth",TX,"Tarrant County",76134,US
10379,"7100 BLOCK  BANNOCK DR","7100 BANNOCK DR","Fort Worth",TX,32.86663,-97.418021,1,range_interpolation,7100,"Bannock Dr","Fort Worth",TX,"Tarrant County",76179,US
10380,"7100 BLOCK  BATTLE CREEK RD","7100 BATTLE CREEK RD","Fort Worth",TX,32.697991,-97.435125,1,range_interpolation,7100,"Battle Creek Rd","Fort Worth",TX,"Tarrant County",76116,US
10381,"7100 BLOCK  BEATY ST","7100 BEATY ST","Fort Worth",TX,32.739353,-97.207479,1,range_interpolation,7100,"Beaty St","Fort Worth",TX,"Tarrant County",76112,US
10382,"7100 BLOCK  BOAT CLUB RD","7100 BOAT CLUB RD","Fort Worth",TX,32.863117,-97.425981,1,range_interpolation,7100,"Boat Club Rd","Fort Worth",TX,"Tarrant County",76179,US
10383,"7100 BLOCK  BREKENRIDGE DR","7100 BREKENRIDGE DR","Fort Worth",TX,32.867673,-97.433423,1,range_interpolation,7100,"Brekenridge Dr","Fort Worth",TX,"Tarrant County",76179,US
10384,"7100 BLOCK  BRENTWOOD STAIR RD","7100 BRENTWOOD STAIR RD","Fort Worth",TX,32.754195,-97.206409,1,range_interpolation,7100,"Brentwood Stair Rd","Fort Worth",TX,"Tarrant County",76112,US
10385,"7100 BLOCK  BRYANT IRVIN RD","7100 BRYANT IRVIN RD","Fort Worth",TX,32.646028,-97.428511,1,range_interpolation,7100,"Bryant Irvin Rd","Fort Worth",TX,"Tarrant County",76132,US
10386,"7100 BLOCK  BUTTONWOOD DR","7100 BUTTONWOOD DR","Fort Worth",TX,32.869362,-97.296905,1,range_interpolation,7100,"Buttonwood Dr","Fort Worth",TX,"Tarrant County",76137,US
10387,"7100 BLOCK  CALMONT AVE","7100 CALMONT AVE","Fort Worth",TX,32.733879,-97.439903,1,range_interpolation,7100,"Calmont Ave","Fort Worth",TX,"Tarrant County",76116,US
10388,"7100 BLOCK  CANISIUS CT","7100 CANISIUS CT","Fort Worth",TX,32.768601,-97.204369,1,range_interpolation,7100,"Canisius Ct","Fort Worth",TX,"Tarrant County",76120,US
10389,"7100 BLOCK  CATTLE DR","7100 CATTLE DR","Fort Worth",TX,32.867096,-97.432475,1,range_interpolation,7100,"Cattle Dr","Fort Worth",TX,"Tarrant County",76179,US
10390,"7100 BLOCK  CHURCH PARK DR","7100 CHURCH PARK DR","Fort Worth",TX,32.640596,-97.381845,1,range_interpolation,7100,"Church Park Dr","Fort Worth",TX,"Tarrant County",76133,US
10391,"7100 BLOCK  CLOUDCROFT LN","7100 CLOUDCROFT LN","Fort Worth",TX,32.696085,-97.093935,0.8,street_center,,"Cloudcroft Dr",Arlington,TX,"Tarrant County",76014,US
10392,"7100 BLOCK  CRAIG ST","7100 CRAIG ST","Fort Worth",TX,32.736282,-97.207484,1,range_interpolation,7100,"Craig St","Fort Worth",TX,"Tarrant County",76112,US
10393,"7100 BLOCK  CREIGHTON CT","7100 CREIGHTON CT","Fort Worth",TX,32.767715,-97.204133,1,range_interpolation,7100,"Cr8thon Ct","Fort Worth",TX,"Tarrant County",76120,US
10394,"7100 BLOCK  DENVER CITY DR","7100 DENVER CITY DR","Fort Worth",TX,32.869687,-97.428961,1,range_interpolation,7100,"Denver City Dr","Fort Worth",TX,"Tarrant County",76179,US
10395,"7100 BLOCK  DUTCH BRANCH RD","7100 DUTCH BRANCH RD","Fort Worth",TX,32.652862,-97.424434,0.8,street_center,,"Dutch Br","Fort Worth",TX,"Tarrant County",76132,US
10396,"7100 BLOCK  EAST FWY","7100 EAST FREEWAY","Fort Worth",TX,32.6785,-97.330511,0.33,place,,,"Fort Worth",TX,"Tarrant County",76115,US
10397,"7100 BLOCK  EDNEY ST","7100 EDNEY ST","Fort Worth",TX,32.666866,-97.333024,0.8,street_center,,"Edney St","Fort Worth",TX,"Tarrant County",76115,US
10398,"7100 BLOCK  FIRE HILL DR","7100 FIRE HILL DR","Fort Worth",TX,32.867924,-97.281515,1,range_interpolation,7100,"Fire Hill Dr","Fort Worth",TX,"Tarrant County",76137,US
10399,"7100 BLOCK  FRANCISCO DR","7100 FRANCISCO DR","Fort Worth",TX,32.641798,-97.391151,1,range_interpolation,7100,"Francisco Dr","Fort Worth",TX,"Tarrant County",76133,US
10400,"7100 BLOCK  GILLIS JOHNSON ST","7100 GILLIS JOHNSON ST","Fort Worth",TX,32.86428,-97.412732,1,range_interpolation,7100,"Gillis Johnson St","Fort Worth",TX,"Tarrant County",76179,US
10401,"7100 BLOCK  GOLF CLUB DR","7100 GOLF CLUB DR","Fort Worth",TX,32.877495,-97.440466,0.8,range_interpolation,7100,"Golf Club Dr","Fort Worth",TX,"Tarrant County",76179,US
10402,"7100 BLOCK  GREEN MEADOW DR","7100 GREEN MEADOW DR","Fort Worth",TX,32.7378,-97.207461,1,range_interpolation,7100,"Green Meadow Dr","Fort Worth",TX,"Tarrant County",76112,US
10403,"7100 BLOCK  HIGHTOWER ST","7100 HIGHTOWER ST","Fort Worth",TX,32.74309,-97.207996,1,range_interpolation,7100,"Hightower St","Fort Worth",TX,"Tarrant County",76112,US
10404,"7100 BLOCK  JACK NEWELL BLVD S","7100 JACK NEWELL BLVD S","Fort Worth",TX,32.784566,-97.225926,1,range_interpolation,7100,"Jack Newell Blvd S","Fort Worth",TX,"Tarrant County",76118,US
10405,"7100 BLOCK  JEWELL AVE","7100 JEWELL AVE","Fort Worth",TX,32.743915,-97.208007,1,range_interpolation,7100,"Jewell Ave","Fort Worth",TX,"Tarrant County",76112,US
10406,"7100 BLOCK  KERMIT AVE","7100 KERMIT AVE","Fort Worth",TX,32.714654,-97.439718,1,range_interpolation,7100,"Kermit Ave","Fort Worth",TX,"Tarrant County",76116,US
10407,"7100 BLOCK  KICKAPOO DR","7100 KICKAPOO DR","Fort Worth",TX,32.865271,-97.418923,1,range_interpolation,7100,"Kickapoo Dr","Fort Worth",TX,"Tarrant County",76179,US
10408,"7100 BLOCK  LITTLE MOHICAN DR","7100 LITTLE MOHICAN DR","Fort Worth",TX,32.865281,-97.419803,1,range_interpolation,7100,"Little Mohican Dr","Fort Worth",TX,"Tarrant County",76179,US
10409,"7100 BLOCK  MARVIN BROWN ST","7100 MARVIN BROWN ST","Fort Worth",TX,32.864595,-97.414289,1,range_interpolation,7100,"Marvin Brown St","Fort Worth",TX,"Tarrant County",76179,US
10410,"7100 BLOCK  NORMA ST","7100 NORMA ST","Fort Worth",TX,32.742147,-97.207986,1,range_interpolation,7100,"Norma St","Fort Worth",TX,"Tarrant County",76112,US
10411,"7100 BLOCK  NORTH FWY","7100 NORTH FREEWAY","Fort Worth",TX,32.795731,-97.32314,0.8,street_center,,"North Fwy","Fort Worth",TX,"Tarrant County",76106,US
10412,"7100 BLOCK  NORTH FWY SR NB","7100 NORTH FREEWAY SERVICE ROAD","Fort Worth",TX,32.795731,-97.32314,0.8,street_center,,"North Fwy","Fort Worth",TX,"Tarrant County",76106,US
10413,"7100 BLOCK  OLD MILL DR","7100 OLD MILL DR","Fort Worth",TX,32.870386,-97.271537,1,range_interpolation,7100,"Old Mill Dr","Fort Worth",TX,"Tarrant County",76137,US
10414,"7100 BLOCK  OLD SANTA FE","7100 OLD SANTA FE","Fort Worth",TX,32.868765,-97.3179,1,range_interpolation,7100,"Old Santa Fe Trl","Fort Worth",TX,"Tarrant County",76131,US
10415,"7100 BLOCK  OLD SANTA FE TRL","7100 OLD SANTA FE TRL","Fort Worth",TX,32.868765,-97.3179,1,range_interpolation,7100,"Old Santa Fe Trl","Fort Worth",TX,"Tarrant County",76131,US
10416,"7100 BLOCK  PARK CREEK CIR E","7100 PARK CREEK CIR E","Fort Worth",TX,32.869781,-97.288972,1,range_interpolation,7100,"Park Creek Cir E","Fort Worth",TX,"Tarrant County",76137,US
10417,"7100 BLOCK  PARK CREEK CIR W","7100 PARK CREEK CIR W","Fort Worth",TX,32.868686,-97.290602,1,range_interpolation,7100,"Park Creek Cir W","Fort Worth",TX,"Tarrant County",76137,US
10418,"7100 BLOCK  PARK CREEK DR","7100 PARK CREEK DR","Fort Worth",TX,32.8684,-97.289744,1,range_interpolation,7100,"Park Creek Dr","Fort Worth",TX,"Tarrant County",76137,US
10419,"7100 BLOCK  QUAIL RIDGE RD","7100 QUAIL RIDGE RD","Fort Worth",TX,32.648381,-97.423781,1,range_interpolation,7100,"Quail Ridge Rd","Fort Worth",TX,"Tarrant County",76132,US
10420,"7100 BLOCK  RANDOL MILL RD","7100 RANDOL MILL RD","Fort Worth",TX,32.779768,-97.203948,1,range_interpolation,7100,"Randol Mill Rd","Fort Worth",TX,"Tarrant County",76120,US
10421,"7100 BLOCK  ROBINHOOD LN","7100 ROBINHOOD LN","Fort Worth",TX,32.744897,-97.208012,1,range_interpolation,7100,"Robinhood Ln","Fort Worth",TX,"Tarrant County",76112,US
10422,"7100 BLOCK  RUTH ST","7100 RUTH ST","Fort Worth",TX,32.731296,-97.207557,1,range_interpolation,7100,"Ruth St","Fort Worth",TX,"Tarrant County",76112,US
10423,"7100 BLOCK  SCOTS BRIAR CT","7100 SCOTS BRIAR CT","Fort Worth",TX,32.867451,-97.283338,1,range_interpolation,7100,"Scots Briar Ct","Fort Worth",TX,"Tarrant County",76137,US
10424,"7100 BLOCK  SOUTH FWY SR SB","7100 SOUTH FREEWAY SERVICE ROAD","Fort Worth",TX,32.642387,-97.321923,1,range_interpolation,7100,"South Fwy","Fort Worth",TX,"Tarrant County",76134,US
10425,"7100 BLOCK  SPARROW PT","7100 SPARROW PT","Fort Worth",TX,32.641987,-97.386037,1,range_interpolation,7100,"Sparrow Pt","Fort Worth",TX,"Tarrant County",76133,US
10426,"7100 BLOCK  STONEHAVEN CT","7100 STONEHAVEN CT","Fort Worth",TX,32.878687,-97.427489,1,range_interpolation,7100,"Stonehaven Ct","Fort Worth",TX,"Tarrant County",76179,US
10427,"7100 BLOCK  STRAWBERRY WAY","7100 STRAWBERRY WAY","Fort Worth",TX,32.8695,-97.297845,1,range_interpolation,7100,"Strawberry Way","Fort Worth",TX,"Tarrant County",76137,US
10428,"7100 BLOCK  TAMARACK RD","7100 TAMARACK RD","Fort Worth",TX,32.694231,-97.434452,1,range_interpolation,7100,"Tamarack Rd","Fort Worth",TX,"Tarrant County",76116,US
10429,"7100 BLOCK  TEAL DR","7100 TEAL DR","Fort Worth",TX,32.867634,-97.277706,1,range_interpolation,7100,"Teal Dr","Fort Worth",TX,"Tarrant County",76137,US
10430,"7100 BLOCK  TRAIL LAKE DR","7100 TRAIL LAKE DR","Fort Worth",TX,32.640473,-97.401457,1,range_interpolation,7100,"Trail Lake Dr","Fort Worth",TX,"Tarrant County",76123,US
10431,"7100 BLOCK  WEST FWY SR WB","7100 WEST FREEWAY SERVICE ROAD","Fort Worth",TX,32.733054,-97.380445,0.8,street_center,,"West Fwy","Fort Worth",TX,"Tarrant County",76107,US
10432,"7100 BLOCK  WHITE TAIL TRL","7100 WHITE TAIL TRL","Fort Worth",TX,32.646238,-97.420991,1,range_interpolation,7100,"White Tail Trl","Fort Worth",TX,"Tarrant County",76132,US
10433,"7100 BLOCK  WHITEWOOD DR","7100 WHITEWOOD DR","Fort Worth",TX,32.86939,-97.293321,1,range_interpolation,7100,"Whitewood Dr","Fort Worth",TX,"Tarrant County",76137,US
10434,"7100 BLOCK  WIND CHIME DR","7100 WIND CHIME DR","Fort Worth",TX,32.643472,-97.392772,1,range_interpolation,7100,"Wind Chime Dr","Fort Worth",TX,"Tarrant County",76133,US
10435,"7100 BLOCK  YOLANDA DR","7100 YOLANDA DR","Fort Worth",TX,32.751716,-97.207368,1,range_interpolation,7100,"Yolanda Dr","Fort Worth",TX,"Tarrant County",76112,US
10436,"7100 BLOCK D ANDERSON BL","7100 ANDERSON BL","Fort Worth",TX,32.762053,-97.204264,1,range_interpolation,7100,"Anderson Blvd","Fort Worth",TX,"Tarrant County",76120,US
10437,"7100 BLOCK D CAMP BOWIE BL","7100 CAMP BOWIE BL","Fort Worth",TX,32.718954,-97.442191,1,range_interpolation,7100,"Camp Bowie Blvd","Fort Worth",TX,"Tarrant County",76116,US
10438,"7100 BLOCK D CAMP BOWIE WEST BL","7100 CAMP BOWIE WEST BL","Fort Worth",TX,32.718954,-97.442191,1,range_interpolation,7100,"Camp Bowie Blvd","Fort Worth",TX,"Tarrant County",76116,US
10439,"7100 BLOCK D KUBAN BL","7100 KUBAN BL","Fort Worth",TX,32.76895,-97.202837,1,range_interpolation,7100,"Kuban Blvd","Fort Worth",TX,"Tarrant County",76120,US
10440,"7100 BLOCK D OAKMONT BL","7100 OAKMONT BL","Fort Worth",TX,32.662999,-97.416512,0.9,range_interpolation,7100,"Oakmont Blvd","Fort Worth",TX,"Tarrant County",76132,US
10441,"7100 BLOCK D VICKERY BL","7100 VICKERY BL","Fort Worth",TX,32.739108,-97.306604,0.8,street_center,,"E Vickery Blvd","Fort Worth",TX,"Tarrant County",76104,US
10442,"7100 BLOCK E SOUTH MEADOW DR","7100 E SOUTH MEADOW DR","Fort Worth",TX,32.771419,-97.291484,0.33,place,,,"Fort Worth",TX,"Tarrant County",76101,US
10443,"7100 BLOCK Y CHISHOLM TRAIL PK","7100 CHISHOLM TRAIL PK","Fort Worth",TX,32.729445,-97.465615,0.8,street_center,,"Chisholm Trl","Fort Worth",TX,"Tarrant County",76116,US
10444,"7200 BLOCK  ASHBOURNE WAY","7200 ASHBOURNE WAY","Fort Worth",TX,32.638484,-97.356423,1,range_interpolation,7200,"Ashbourne Way","Fort Worth",TX,"Tarrant County",76133,US
10445,"7200 BLOCK  AUTUMN GLEN DR","7200 AUTUMN GLEN DR","Fort Worth",TX,32.651128,-97.280015,1,range_interpolation,7200,"Autumn Glen Dr","Fort Worth",TX,"Tarrant County",76140,US
10446,"7200 BLOCK  AVINGTON WAY","7200 AVINGTON WAY","Fort Worth",TX,32.638472,-97.354526,1,range_interpolation,7200,"Avington Way","Fort Worth",TX,"Tarrant County",76133,US
10447,"7200 BLOCK  BANNOCK DR","7200 BANNOCK DR","Fort Worth",TX,32.867538,-97.418006,1,range_interpolation,7200,"Bannock Dr","Fort Worth",TX,"Tarrant County",76179,US
10448,"7200 BLOCK  BLUE MOUND RD","7200 BLUE MOUND RD","Fort Worth",TX,32.881879,-97.34232,1,range_interpolation,7200,"Blue Mound Rd","Fort Worth",TX,"Tarrant County",76131,US
10449,"7200 BLOCK  BOAT CLUB RD","7200 BOAT CLUB RD","Fort Worth",TX,32.864059,-97.425964,1,range_interpolation,7200,"Boat Club Rd","Fort Worth",TX,"Tarrant County",76179,US
10450,"7200 BLOCK  BREKENRIDGE DR","7200 BREKENRIDGE DR","Fort Worth",TX,32.86717,-97.433428,1,range_interpolation,7200,"Brekenridge Dr","Fort Worth",TX,"Tarrant County",76179,US
10451,"7200 BLOCK  BUNK HOUSE DR","7200 BUNK HOUSE DR","Fort Worth",TX,32.866609,-97.430598,0.8,street_center,,"Bunk House Dr","Fort Worth",TX,"Tarrant County",76179,US
10452,"7200 BLOCK  BUTTONWOOD DR","7200 BUTTONWOOD DR","Fort Worth",TX,32.870099,-97.296861,1,range_interpolation,7200,"Buttonwood Dr","Fort Worth",TX,"Tarrant County",76137,US
10453,"7200 BLOCK  CASCADE CT","7200 CASCADE CT","Fort Worth",TX,32.872007,-97.305514,1,range_interpolation,7200,"Cascade Ct","Fort Worth",TX,"Tarrant County",76137,US
10454,"7200 BLOCK  CHURCH PARK DR","7200 CHURCH PARK DR","Fort Worth",TX,32.638863,-97.379628,1,range_interpolation,7200,"Church Park Dr","Fort Worth",TX,"Tarrant County",76133,US
10455,"7200 BLOCK  CHURCH ST","7200 CHURCH ST","Fort Worth",TX,32.733067,-97.205749,1,range_interpolation,7200,"Church St","Fort Worth",TX,"Tarrant County",76112,US
10456,"7200 BLOCK  CORDES CT","7200 CORDES CT","Fort Worth",TX,32.741863,-97.204661,1,range_interpolation,7200,"Cordes Ct","Fort Worth",TX,"Tarrant County",76112,US
10457,"7200 BLOCK  CRAIG ST","7200 CRAIG ST","Fort Worth",TX,32.736257,-97.205669,1,range_interpolation,7200,"Craig St","Fort Worth",TX,"Tarrant County",76112,US
10458,"7200 BLOCK  DECOY LN","7200 DECOY LN","Fort Worth",TX,32.785343,-97.19925,1,range_interpolation,7200,"Decoy Ln","Fort Worth",TX,"Tarrant County",76120,US
10459,"7200 BLOCK  DENVER CITY DR","7200 DENVER CITY DR","Fort Worth",TX,32.867276,-97.428823,1,range_interpolation,7200,"Denver City Dr","Fort Worth",TX,"Tarrant County",76179,US
10460,"7200 BLOCK  ELLIS RD","7200 ELLIS RD","Fort Worth",TX,32.750062,-97.205854,1,range_interpolation,7200,"Ellis Rd","Fort Worth",TX,"Tarrant County",76112,US
10461,"7200 BLOCK  INDIANA AVE","7200 INDIANA AVE","Fort Worth",TX,32.867916,-97.279136,1,range_interpolation,7200,"Indiana Ave","Fort Worth",TX,"Tarrant County",76137,US
10462,"7200 BLOCK  JACK NEWELL BLVD S","7200 JACK NEWELL BLVD S","Fort Worth",TX,32.784695,-97.22464,1,range_interpolation,7200,"Jack Newell Blvd S","Fort Worth",TX,"Tarrant County",76118,US
10463,"7200 BLOCK  JEWELL AVE","7200 JEWELL AVE","Fort Worth",TX,32.743948,-97.204679,1,range_interpolation,7200,"Jewell Ave","Fort Worth",TX,"Tarrant County",76112,US
10464,"7200 BLOCK  JOHN T WHITE RD","7200 JOHN T WHITE RD","Fort Worth",TX,32.765461,-97.200862,1,range_interpolation,7200,"John T White Rd","Fort Worth",TX,"Tarrant County",76120,US
10465,"7200 BLOCK  JOHNSTONE LN","7200 JOHNSTONE LN","Fort Worth",TX,32.641157,-97.391746,1,range_interpolation,7200,"Johnstone Ln","Fort Worth",TX,"Tarrant County",76133,US
10466,"7200 BLOCK  KENTISH DR","7200 KENTISH DR","Fort Worth",TX,32.869692,-97.309677,1,range_interpolation,7200,"Kentish Dr","Fort Worth",TX,"Tarrant County",76137,US
10467,"7200 BLOCK  KINGSWOOD DR","7200 KINGSWOOD DR","Fort Worth",TX,32.641086,-97.392454,1,range_interpolation,7200,"Kingswood Dr","Fort Worth",TX,"Tarrant County",76133,US
10468,"7200 BLOCK  LAKE COUNTRY DR","7200 LAKE COUNTRY DR","Fort Worth",TX,32.879348,-97.444448,0.8,street_center,,"Lake Country Dr","Fort Worth",TX,"Tarrant County",76179,US
10469,"7200 BLOCK  LAKESIDE DR","7200 LAKESIDE DR","Fort Worth",TX,32.82078,-97.423593,0.8,street_center,,"Lakeside Dr","Fort Worth",TX,"Tarrant County",76135,US
10470,"7200 BLOCK  LAKEWAY N","7200 LAKEWAY N","Fort Worth",TX,32.670538,-97.4773,0.8,street_center,,"Lakeway Dr","Fort Worth",TX,"Tarrant County",76126,US
10471,"7200 BLOCK  LINDENTREE LN","7200 LINDENTREE LN","Fort Worth",TX,32.870178,-97.264403,1,range_interpolation,7200,"Lindentree Ln","Fort Worth",TX,"Tarrant County",76137,US
10472,"7200 BLOCK  LINNA DR","7200 LINNA DR","Fort Worth",TX,32.6401,-97.34547,1,range_interpolation,7200,"Linna Dr","Fort Worth",TX,"Tarrant County",76134,US
10473,"7200 BLOCK  MADEIRA DR","7200 MADEIRA DR","Fort Worth",TX,32.751676,-97.203959,1,range_interpolation,7200,"Madeira Dr","Fort Worth",TX,"Tarrant County",76112,US
10474,"7200 BLOCK  MARTHA LN","7200 MARTHA LN","Fort Worth",TX,32.74727,-97.205321,1,range_interpolation,7200,"Martha Ln","Fort Worth",TX,"Tarrant County",76112,US
10475,"7200 BLOCK  MERRY LANE CT","7200 MERRY LANE CT","Fort Worth",TX,32.756075,-97.203621,1,range_interpolation,7200,"Merry Lane Ct","Fort Worth",TX,"Tarrant County",76112,US
10476,"7200 BLOCK  MERRY LN","7200 MERRY LN","Fort Worth",TX,32.756227,-97.204791,1,range_interpolation,7200,"Merry Ln","Fort Worth",TX,"Tarrant County",76112,US
10477,"7200 BLOCK  NOHL RANCH RD","7200 NOHL RANCH RD","Fort Worth",TX,32.639829,-97.357276,1,range_interpolation,7200,"Nohl Ranch Rd","Fort Worth",TX,"Tarrant County",76133,US
10478,"7200 BLOCK  NORMA ST","7200 NORMA ST","Fort Worth",TX,32.74253,-97.204663,1,range_interpolation,7200,"Norma St","Fort Worth",TX,"Tarrant County",76112,US
10479,"7200 BLOCK  NORMANDY RD","7200 NORMANDY RD","Fort Worth",TX,32.749282,-97.205976,1,range_interpolation,7200,"Normandy Rd","Fort Worth",TX,"Tarrant County",76112,US
10480,"7200 BLOCK  NORTH FWY SR NB","7200 NORTH FREEWAY SERVICE ROAD","Fort Worth",TX,32.795731,-97.32314,0.8,street_center,,"North Fwy","Fort Worth",TX,"Tarrant County",76106,US
10481,"7200 BLOCK  NORTH FWY SR SB","7200 NORTH FREEWAY SERVICE ROAD","Fort Worth",TX,32.795731,-97.32314,0.8,street_center,,"North Fwy","Fort Worth",TX,"Tarrant County",76106,US
10482,"7200 BLOCK  NOSILLA ST","7200 NOSILLA ST","Fort Worth",TX,32.733885,-97.20568,1,range_interpolation,7200,"Nosilla St","Fort Worth",TX,"Tarrant County",76112,US
10483,"7200 BLOCK  OAKLINE TRL","7200 OAKLINE TRL","Fort Worth",TX,32.758711,-97.200538,0.8,street_center,,"Oakline Trl","Fort Worth",TX,"Tarrant County",76112,US
10484,"7200 BLOCK  OLD DECATUR RD","7200 OLD DECATUR RD","Fort Worth",TX,32.874533,-97.390739,0.8,street_center,,"N Old Decatur Rd","Fort Worth",TX,"Tarrant County",76179,US
10485,"7200 BLOCK  OLD MILL RUN","7200 OLD MILL RUN","Fort Worth",TX,32.640121,-97.382664,1,range_interpolation,7200,"Old Mill Run St","Fort Worth",TX,"Tarrant County",76133,US
10486,"7200 BLOCK  PARK CREEK CIR W","7200 PARK CREEK CIR W","Fort Worth",TX,32.869687,-97.290622,1,range_interpolation,7200,"Park Creek Cir W","Fort Worth",TX,"Tarrant County",76137,US
10487,"7200 BLOCK  PARK WEST CIR","7200 PARK WEST CIR","Fort Worth",TX,32.640119,-97.348492,1,range_interpolation,7200,"Park West Cir","Fort Worth",TX,"Tarrant County",76134,US
10488,"7200 BLOCK  RANGER WAY","7200 RANGER WAY","Fort Worth",TX,32.638517,-97.355475,1,range_interpolation,7200,"Ranger Way","Fort Worth",TX,"Tarrant County",76133,US
10489,"7200 BLOCK  RETRIEVER LN","7200 RETRIEVER LN","Fort Worth",TX,32.783859,-97.199244,1,range_interpolation,7200,"Retriever Ln","Fort Worth",TX,"Tarrant County",76120,US
10490,"7200 BLOCK  ROBERTSON RD","7200 ROBERTSON RD","Fort Worth",TX,32.863262,-97.444727,0.8,street_center,,"Robertson Rd","Fort Worth",TX,"Tarrant County",76135,US
10491,"7200 BLOCK  ROCKDALE RD","7200 ROCKDALE RD","Fort Worth",TX,32.64119,-97.327645,1,range_interpolation,7200,"Rockdale Rd","Fort Worth",TX,"Tarrant County",76134,US
10492,"7200 BLOCK  RUTH ST","7200 RUTH ST","Fort Worth",TX,32.731289,-97.205962,1,range_interpolation,7200,"Ruth St","Fort Worth",TX,"Tarrant County",76112,US
10493,"7200 BLOCK  SILVER CITY DR","7200 SILVER CITY DR","Fort Worth",TX,32.866423,-97.427385,1,range_interpolation,7200,"Silver City Dr","Fort Worth",TX,"Tarrant County",76179,US
10494,"7200 BLOCK  SLOCUM AVE","7200 SLOCUM AVE","Fort Worth",TX,32.728335,-97.440902,1,range_interpolation,7200,"Slocum Ave","Fort Worth",TX,"Tarrant County",76116,US
10495,"7200 BLOCK  SOUTH RIDGE TRL","7200 SOUTH RIDGE TRL","Fort Worth",TX,32.636686,-97.373924,1,range_interpolation,7200,"S Ridge Trl","Fort Worth",TX,"Tarrant County",76133,US
10496,"7200 BLOCK  SPECKLEBELLY LN","7200 SPECKLEBELLY LN","Fort Worth",TX,32.784613,-97.19925,1,range_interpolation,7200,"Specklebelly Ln","Fort Worth",TX,"Tarrant County",76120,US
10497,"7200 BLOCK  SUNNYBANK DR","7200 SUNNYBANK DR","Fort Worth",TX,32.869159,-97.286987,1,range_interpolation,7200,"Sunnybank Dr","Fort Worth",TX,"Tarrant County",76137,US
10498,"7200 BLOCK  TEAL DR","7200 TEAL DR","Fort Worth",TX,32.871627,-97.278351,1,range_interpolation,7200,"Teal Dr","Fort Worth",TX,"Tarrant County",76137,US
10499,"7200 BLOCK  TIMBER TRL","7200 TIMBER TRL","Fort Worth",TX,32.642081,-97.346043,1,range_interpolation,7200,"Timber Trl","Fort Worth",TX,"Tarrant County",76134,US
10500,"7200 BLOCK  TRIMBLE DR","7200 TRIMBLE DR","Fort Worth",TX,32.641739,-97.331469,1,range_interpolation,7200,"Trimble Dr","Fort Worth",TX,"Tarrant County",76134,US
10501,"7200 BLOCK  VAN NATTA LN","7200 VAN NATTA LN","Fort Worth",TX,32.740403,-97.204664,1,range_interpolation,7200,"Van Natta Ln","Fort Worth",TX,"Tarrant County",76112,US
10502,"7200 BLOCK  VANESSA DR","7200 VANESSA DR","Fort Worth",TX,32.752473,-97.203665,1,range_interpolation,7200,"Vanessa Dr","Fort Worth",TX,"Tarrant County",76112,US
10503,"7200 BLOCK  WAGON RUN DR","7200 WAGON RUN DR","Fort Worth",TX,32.871299,-97.273502,1,range_interpolation,7200,"Wagon Run Dr","Fort Worth",TX,"Tarrant County",76137,US
10504,"7200 BLOCK  WAGONWHEEL RD","7200 WAGONWHEEL RD","Fort Worth",TX,32.639852,-97.358059,1,range_interpolation,7200,"Wagonwheel Rd","Fort Worth",TX,"Tarrant County",76133,US
10505,"7200 BLOCK  WAYFARER TRL","7200 WAYFARER TRL","Fort Worth",TX,32.871565,-97.300205,1,range_interpolation,7200,"Wayfarer Trl","Fort Worth",TX,"Tarrant County",76137,US
10506,"7200 BLOCK  WEST FWY SR EB","7200 WEST FREEWAY SERVICE ROAD","Fort Worth",TX,32.733054,-97.380445,0.8,street_center,,"West Fwy","Fort Worth",TX,"Tarrant County",76107,US
10507,"7200 BLOCK  WEST FWY SR WB","7200 WEST FREEWAY SERVICE ROAD","Fort Worth",TX,32.733054,-97.380445,0.8,street_center,,"West Fwy","Fort Worth",TX,"Tarrant County",76107,US
10508,"7200 BLOCK  WHITEWOOD DR","7200 WHITEWOOD DR","Fort Worth",TX,32.870198,-97.29336,1,range_interpolation,7200,"Whitewood Dr","Fort Worth",TX,"Tarrant County",76137,US
10509,"7200 BLOCK  WILD WING DR","7200 WILD WING DR","Fort Worth",TX,32.783126,-97.199246,1,range_interpolation,7200,"Wild Wing Dr","Fort Worth",TX,"Tarrant County",76120,US
10510,"7200 BLOCK  WINTERS ST","7200 WINTERS ST","Fort Worth",TX,32.778984,-97.200319,1,range_interpolation,7200,"Winters St","Fort Worth",TX,"Tarrant County",76120,US
10511,"7200 BLOCK  YOLANDA DR","7200 YOLANDA DR","Fort Worth",TX,32.751702,-97.205531,1,range_interpolation,7200,"Yolanda Dr","Fort Worth",TX,"Tarrant County",76112,US
10512,"7200 BLOCK D ANDERSON BL","7200 ANDERSON BL","Fort Worth",TX,32.762048,-97.200863,1,range_interpolation,7200,"Anderson Blvd","Fort Worth",TX,"Tarrant County",76120,US
10513,"7200 BLOCK D CAMP BOWIE BL","7200 CAMP BOWIE BL","Fort Worth",TX,32.734218,-97.402507,0.8,street_center,,"Camp Bowie Blvd","Fort Worth",TX,"Tarrant County",76107,US
10514,"7200 BLOCK D CAMP BOWIE WEST BL","7200 CAMP BOWIE WEST BL","Fort Worth",TX,32.734218,-97.402507,0.8,street_center,,"Camp Bowie Blvd","Fort Worth",TX,"Tarrant County",76107,US
10515,"7200 BLOCK D KUBAN BL","7200 KUBAN BL","Fort Worth",TX,32.768926,-97.200815,1,range_interpolation,7200,"Kuban Blvd","Fort Worth",TX,"Tarrant County",76120,US
10516,"7200 BLOCK D OAKMONT BL","7200 OAKMONT BL","Fort Worth",TX,32.662996,-97.415293,0.9,range_interpolation,7200,"Oakmont Blvd","Fort Worth",TX,"Tarrant County",76132,US
10517,"7200 BLOCK D VICKERY BL","7200 VICKERY BL","Fort Worth",TX,32.739108,-97.306604,0.8,street_center,,"E Vickery Blvd","Fort Worth",TX,"Tarrant County",76104,US
10518,"7200 BLOCK E WEST FWY SR WB","7200 E WEST FREEWAY SERVICE ROAD","Fort Worth",TX,32.771419,-97.291484,0.33,place,,,"Fort Worth",TX,"Tarrant County",76101,US
10519,"7300 BLOCK  ABERDEEN DR","7300 ABERDEEN DR","Fort Worth",TX,32.699531,-97.440901,1,range_interpolation,7300,"Aberdeen Dr","Fort Worth",TX,"Tarrant County",76116,US
10520,"7300 BLOCK  ASHBOURNE WAY","7300 ASHBOURNE WAY","Fort Worth",TX,32.63716,-97.356275,1,range_interpolation,7300,"Ashbourne Way","Fort Worth",TX,"Tarrant County",76133,US
10521,"7300 BLOCK  BEATY ST","7300 BEATY ST","Fort Worth",TX,32.739327,-97.202434,1,range_interpolation,7300,"Beaty St","Fort Worth",TX,"Tarrant County",76112,US
10522,"7300 BLOCK  BECKWOOD DR","7300 BECKWOOD DR","Fort Worth",TX,32.73815,-97.200507,1,range_interpolation,7300,"Beckwood Dr","Fort Worth",TX,"Tarrant County",76112,US
10523,"7300 BLOCK  BOAT CLUB RD","7300 BOAT CLUB RD","Fort Worth",TX,32.865001,-97.425943,1,range_interpolation,7300,"Boat Club Rd","Fort Worth",TX,"Tarrant County",76179,US
10524,"7300 BLOCK  BOB HANGER ST","7300 BOB HANGER ST","Fort Worth",TX,32.86804,-97.410971,1,range_interpolation,7300,"Bob Hanger St","Fort Worth",TX,"Tarrant County",76179,US
10525,"7300 BLOCK  BRAZOS AVE","7300 BRAZOS AVE","Fort Worth",TX,32.712315,-97.441333,1,range_interpolation,7300,"Brazos Ave","Fort Worth",TX,"Tarrant County",76116,US
10526,"7300 BLOCK  BRENTWOOD STAIR RD","7300 BRENTWOOD STAIR RD","Fort Worth",TX,32.75419,-97.201714,1,range_interpolation,7300,"Brentwood Stair Rd","Fort Worth",TX,"Tarrant County",76112,US
10527,"7300 BLOCK  BRIARWYCK CT","7300 BRIARWYCK CT","Fort Worth",TX,32.872008,-97.292251,1,range_interpolation,7300,"Briarwyck Ct","Fort Worth",TX,"Tarrant County",76137,US
10528,"7300 BLOCK  CALMONT AVE","7300 CALMONT AVE","Fort Worth",TX,32.734147,-97.442001,1,range_interpolation,7300,"Calmont Ave","Fort Worth",TX,"Tarrant County",76116,US
10529,"7300 BLOCK  CASCADE CT","7300 CASCADE CT","Fort Worth",TX,32.872329,-97.305331,1,range_interpolation,7300,"Cascade Ct","Fort Worth",TX,"Tarrant County",76137,US
10530,"7300 BLOCK  CHAMBERS LN","7300 CHAMBERS LN","Fort Worth",TX,32.87846,-97.434329,1,range_interpolation,7300,"Chambers Ln","Fort Worth",TX,"Tarrant County",76179,US
10531,"7300 BLOCK  CROWLEY RD","7300 CROWLEY RD","Fort Worth",TX,32.638847,-97.348654,1,range_interpolation,7300,"Crowley Rd","Fort Worth",TX,"Tarrant County",76134,US
10532,"7300 BLOCK  CULVER AVE","7300 CULVER AVE","Fort Worth",TX,32.70425,-97.440346,1,range_interpolation,7300,"Culver Ave","Fort Worth",TX,"Tarrant County",76116,US
10533,"7300 BLOCK  DARIEN ST","7300 DARIEN ST","Fort Worth",TX,32.647911,-97.278539,1,range_interpolation,7300,"Darien St","Fort Worth",TX,"Tarrant County",76140,US
10534,"7300 BLOCK  DAVENPORT AVE","7300 DAVENPORT AVE","Fort Worth",TX,32.71148,-97.44094,1,range_interpolation,7300,"Davenport Ave","Fort Worth",TX,"Tarrant County",76116,US
10535,"7300 BLOCK  DUTCH BRANCH RD","7300 DUTCH BRANCH RD","Fort Worth",TX,32.652862,-97.424434,0.8,street_center,,"Dutch Br","Fort Worth",TX,"Tarrant County",76132,US
10536,"7300 BLOCK  EAST FWY","7300 EAST FREEWAY","Fort Worth",TX,32.6785,-97.330511,0.33,place,,,"Fort Worth",TX,"Tarrant County",76115,US
10537,"7300 BLOCK  EDERVILLE RD","7300 EDERVILLE RD","Fort Worth",TX,32.758208,-97.200038,1,range_interpolation,7300,"Ederville Rd","Fort Worth",TX,"Tarrant County",76112,US
10538,"7300 BLOCK  FULLER CIR","7300 FULLER CIR","Fort Worth",TX,32.640753,-97.392557,1,range_interpolation,7300,"Fuller Cir","Fort Worth",TX,"Tarrant County",76133,US
10539,"7300 BLOCK  GASTON AVE","7300 GASTON AVE","Fort Worth",TX,32.710762,-97.440384,1,range_interpolation,7300,"Gaston Ave","Fort Worth",TX,"Tarrant County",76116,US
10540,"7300 BLOCK  GRANBURY RD","7300 GRANBURY RD","Fort Worth",TX,32.641917,-97.409821,1,range_interpolation,7300,"Granbury Rd","Fort Worth",TX,"Tarrant County",76133,US
10541,"7300 BLOCK  GREEN ACRES DR","7300 GREEN ACRES DR","Fort Worth",TX,32.755231,-97.20069,1,range_interpolation,7300,"Green Acres Dr","Fort Worth",TX,"Tarrant County",76112,US
10542,"7300 BLOCK  HYDE CT","7300 HYDE CT","Fort Worth",TX,32.739052,-97.204755,1,range_interpolation,7300,"Hyde Ct","Fort Worth",TX,"Tarrant County",76112,US
10543,"7300 BLOCK  INDIANA AVE","7300 INDIANA AVE","Fort Worth",TX,32.869976,-97.279155,1,range_interpolation,7300,"Indiana Ave","Fort Worth",TX,"Tarrant County",76137,US
10544,"7300 BLOCK  JACK NEWELL BLVD N","7300 JACK NEWELL BLVD N","Fort Worth",TX,32.790539,-97.22112,1,range_interpolation,7300,"Jack Newell Blvd N","Fort Worth",TX,"Tarrant County",76118,US
10545,"7300 BLOCK  JACK NEWELL BLVD S","7300 JACK NEWELL BLVD S","Fort Worth",TX,32.784707,-97.223537,1,range_interpolation,7300,"Jack Newell Blvd S","Fort Worth",TX,"Tarrant County",76118,US
10546,"7300 BLOCK  JOHN T WHITE RD","7300 JOHN T WHITE RD","Fort Worth",TX,32.765471,-97.198367,1,range_interpolation,7300,"John T White Rd","Fort Worth",TX,"Tarrant County",76120,US
10547,"7300 BLOCK  KERMIT AVE","7300 KERMIT AVE","Fort Worth",TX,32.713984,-97.442028,1,range_interpolation,7300,"Kermit Ave","Fort Worth",TX,"Tarrant County",76116,US
10548,"7300 BLOCK  KINGSWOOD CIR","7300 KINGSWOOD CIR","Fort Worth",TX,32.640289,-97.398365,1,range_interpolation,7300,"Kingswood Cir","Fort Worth",TX,"Tarrant County",76133,US
10549,"7300 BLOCK  LAURIE DR","7300 LAURIE DR","Fort Worth",TX,32.753339,-97.201889,1,range_interpolation,7300,"Laurie Dr","Fort Worth",TX,"Tarrant County",76112,US
10550,"7300 BLOCK  LEA PL","7300 LEA PL","Fort Worth",TX,32.647911,-97.278539,1,range_interpolation,7300,"Lea Pl","Fort Worth",TX,"Tarrant County",76140,US
10551,"7300 BLOCK  LEDOUX DR","7300 LEDOUX DR","Fort Worth",TX,32.638982,-97.328584,1,range_interpolation,7300,"Ledoux Dr","Fort Worth",TX,"Tarrant County",76134,US
10552,"7300 BLOCK  LEMONWOOD LN","7300 LEMONWOOD LN","Fort Worth",TX,32.638503,-97.386494,1,range_interpolation,7300,"Lemonwood Ln","Fort Worth",TX,"Tarrant County",76133,US
10553,"7300 BLOCK  LITTLE MOHICAN DR","7300 LITTLE MOHICAN DR","Fort Worth",TX,32.869491,-97.419592,1,range_interpolation,7300,"Little Mohican Dr","Fort Worth",TX,"Tarrant County",76179,US
10554,"7300 BLOCK  LLANO AVE","7300 LLANO AVE","Fort Worth",TX,32.708474,-97.439375,1,range_interpolation,7300,"Llano Ave","Fort Worth",TX,"Tarrant County",76116,US
10555,"7300 BLOCK  MARTHA LN","7300 MARTHA LN","Fort Worth",TX,32.747638,-97.20195,1,range_interpolation,7300,"Martha Ln","Fort Worth",TX,"Tarrant County",76112,US
10556,"7300 BLOCK  MARVIN BROWN ST","7300 MARVIN BROWN ST","Fort Worth",TX,32.868371,-97.414095,1,range_interpolation,7300,"Marvin Brown St","Fort Worth",TX,"Tarrant County",76179,US
10557,"7300 BLOCK  MEADOWBROOK DR","7300 MEADOWBROOK DR","Fort Worth",TX,32.876972,-97.245129,1,range_interpolation,7300,"Meadowbrook Dr","Fort Worth",TX,"Tarrant County",76148,US
10558,"7300 BLOCK  MOON RIDGE CT","7300 MOON RIDGE CT","Fort Worth",TX,32.638498,-97.396977,1,range_interpolation,7300,"Moon Ridge Ct","Fort Worth",TX,"Tarrant County",76133,US
10559,"7300 BLOCK  NOHL RANCH RD","7300 NOHL RANCH RD","Fort Worth",TX,32.63562,-97.35712,1,range_interpolation,7300,"Nohl Ranch Rd","Fort Worth",TX,"Tarrant County",76133,US
10560,"7300 BLOCK  NORMA ST","7300 NORMA ST","Fort Worth",TX,32.742784,-97.200465,1,range_interpolation,7300,"Norma St","Fort Worth",TX,"Tarrant County",76112,US
10561,"7300 BLOCK  NORMANDY RD","7300 NORMANDY RD","Fort Worth",TX,32.748504,-97.201916,1,range_interpolation,7300,"Normandy Rd","Fort Worth",TX,"Tarrant County",76112,US
10562,"7300 BLOCK  OLD SANTA FE TRL","7300 OLD SANTA FE TRL","Fort Worth",TX,32.871935,-97.320476,1,range_interpolation,7300,"Old Santa Fe Trl","Fort Worth",TX,"Tarrant County",76131,US
10563,"7300 BLOCK  PENSACOLA AVE","7300 PENSACOLA AVE","Fort Worth",TX,32.70993,-97.439573,1,range_interpolation,7300,"Pensacola Ave","Fort Worth",TX,"Tarrant County",76116,US
10564,"7300 BLOCK  RANDOL MILL RD","7300 RANDOL MILL RD","Fort Worth",TX,32.781016,-97.198858,1,range_interpolation,7300,"Randol Mill Rd","Fort Worth",TX,"Tarrant County",76120,US
10565,"7300 BLOCK  RANGER WAY","7300 RANGER WAY","Fort Worth",TX,32.637162,-97.355696,1,range_interpolation,7300,"Ranger Way","Fort Worth",TX,"Tarrant County",76133,US
10566,"7300 BLOCK  ROBINHOOD LN","7300 ROBINHOOD LN","Fort Worth",TX,32.744807,-97.201484,1,range_interpolation,7300,"Robinhood Ln","Fort Worth",TX,"Tarrant County",76112,US
10567,"7300 BLOCK  ROCK GARDEN TRL","7300 ROCK GARDEN TRL","Fort Worth",TX,32.636309,-97.403024,1,range_interpolation,7300,"Rock Garden Trl","Fort Worth",TX,"Tarrant County",76123,US
10568,"7300 BLOCK  SAVOY DR","7300 SAVOY DR","Fort Worth",TX,32.638547,-97.398766,1,range_interpolation,7300,"Savoy Dr","Fort Worth",TX,"Tarrant County",76133,US
10569,"7300 BLOCK  SETH BARWISE ST","7300 SETH BARWISE ST","Fort Worth",TX,32.868772,-97.415654,1,range_interpolation,7300,"Seth Barwise St","Fort Worth",TX,"Tarrant County",76179,US
10570,"7300 BLOCK  SHADOW BEND DR","7300 SHADOW BEND DR","Fort Worth",TX,32.871198,-97.299183,1,range_interpolation,7300,"Shadow Bend Dr","Fort Worth",TX,"Tarrant County",76137,US
10571,"7300 BLOCK  SHEPHERD OAKS CIR","7300 SHEPHERD OAKS CIR","Fort Worth",TX,32.758462,-97.200155,0.8,street_center,,"Shepherd Oaks Ct","Fort Worth",TX,"Tarrant County",76112,US
10572,"7300 BLOCK  SILVER CITY DR","7300 SILVER CITY DR","Fort Worth",TX,32.86821,-97.42721,1,range_interpolation,7300,"Silver City Dr","Fort Worth",TX,"Tarrant County",76179,US
10573,"7300 BLOCK  SORRELL CT","7300 SORRELL CT","Fort Worth",TX,32.87322,-97.29428,1,range_interpolation,7300,"Sorrell Ct","Fort Worth",TX,"Tarrant County",76137,US
10574,"7300 BLOCK  SOUTH FWY SR NB","7300 SOUTH FREEWAY SERVICE ROAD","Fort Worth",TX,32.64025,-97.321781,1,range_interpolation,7300,"South Fwy","Fort Worth",TX,"Tarrant County",76134,US
10575,"7300 BLOCK  SOUTH RIDGE TRL","7300 SOUTH RIDGE TRL","Fort Worth",TX,32.63614,-97.375467,1,range_interpolation,7300,"S Ridge Trl","Fort Worth",TX,"Tarrant County",76133,US
10576,"7300 BLOCK  TEAL DR","7300 TEAL DR","Fort Worth",TX,32.869962,-97.278212,1,range_interpolation,7300,"Teal Dr","Fort Worth",TX,"Tarrant County",76137,US
10577,"7300 BLOCK  TRIMBLE DR","7300 TRIMBLE DR","Fort Worth",TX,32.641072,-97.331734,1,range_interpolation,7300,"Trimble Dr","Fort Worth",TX,"Tarrant County",76134,US
10578,"7300 BLOCK  WEST FWY SR WB","7300 WEST FREEWAY SERVICE ROAD","Fort Worth",TX,32.733054,-97.380445,0.8,street_center,,"West Fwy","Fort Worth",TX,"Tarrant County",76107,US
10579,"7300 BLOCK  WHITEWOOD DR","7300 WHITEWOOD DR","Fort Worth",TX,32.871771,-97.293427,1,range_interpolation,7300,"Whitewood Dr","Fort Worth",TX,"Tarrant County",76137,US
