ID,original_address,street,city,state,Latitude,Longitude,"Accuracy Score","Accuracy Type",Number,Street,City,State,County,Zip,Country
5001,"3300 BLOCK  DALFORD ST","3300 DALFORD ST","Fort Worth",TX,32.778389,-97.299247,1,range_interpolation,3300,"Dalford St","Fort Worth",TX,"Tarrant County",76111,US
5002,"3300 BLOCK  DECATUR AVE","3300 DECATUR AVE","Fort Worth",TX,32.80306,-97.33844,1,range_interpolation,3300,"Decatur Ave","Fort Worth",TX,"Tarrant County",76106,US
5003,"3300 BLOCK  EAST LOOP 820 SOUTH","3300 EAST LOOP 820 SOUTH","Fort Worth",TX,32.713969,-97.228719,1,range_interpolation,3300,"E Loop 820 S","Fort Worth",TX,"Tarrant County",76119,US
5004,"3300 BLOCK  EAST LOOP 820 SOUTH FWY","3300 EAST LOOP 820 SOUTH FREEWAY","Fort Worth",TX,32.713969,-97.228719,1,range_interpolation,3300,"E Loop 820 S","Fort Worth",TX,"Tarrant County",76119,US
5005,"3300 BLOCK  EASTLAND ST","3300 EASTLAND ST","Fort Worth",TX,32.707489,-97.27782,1,range_interpolation,3300,"Eastland St","Fort Worth",TX,"Tarrant County",76119,US
5006,"3300 BLOCK  EDGEHILL RD","3300 EDGEHILL RD","Fort Worth",TX,32.72572,-97.425323,1,range_interpolation,3300,"Edgehill Rd","Fort Worth",TX,"Tarrant County",76116,US
5007,"3300 BLOCK  FAIRFIELD AVE","3300 FAIRFIELD AVE","Fort Worth",TX,32.727527,-97.417758,1,range_interpolation,3300,"Fairfield Ave","Fort Worth",TX,"Tarrant County",76116,US
5008,"3300 BLOCK  FAIRMEADOWS LN","3300 FAIRMEADOWS LN","Fort Worth",TX,32.628179,-97.369445,1,range_interpolation,3300,"Fairmeadows Ln","Fort Worth",TX,"Tarrant County",76123,US
5009,"3300 BLOCK  FAIRVIEW ST","3300 FAIRVIEW ST","Fort Worth",TX,32.803913,-97.298064,1,range_interpolation,3300,"Fairview St","Fort Worth",TX,"Tarrant County",76111,US
5010,"3300 BLOCK  FITZHUGH AVE","3300 FITZHUGH AVE","Fort Worth",TX,32.717098,-97.278118,1,range_interpolation,3300,"Fitzhugh Ave","Fort Worth",TX,"Tarrant County",76105,US
5011,"3300 BLOCK  FRANCIS DR","3300 FRANCIS DR","Fort Worth",TX,32.72578,-97.457135,1,range_interpolation,3300,"Francis Dr","Fort Worth",TX,"Tarrant County",76116,US
5012,"3300 BLOCK  FREDDIE ST","3300 FREDDIE ST","Fort Worth",TX,32.712005,-97.265275,1,range_interpolation,3300,"Freddie St","Fort Worth",TX,"Tarrant County",76119,US
5013,"3300 BLOCK  GALEMEADOW DR","3300 GALEMEADOW DR","Fort Worth",TX,32.630627,-97.369742,1,range_interpolation,3300,"Galemeadow Dr","Fort Worth",TX,"Tarrant County",76123,US
5014,"3300 BLOCK  GREEN RIDGE","3300 GREEN RIDGE","Fort Worth",TX,32.637984,-97.366253,1,range_interpolation,3300,"Green Rdg","Fort Worth",TX,"Tarrant County",76133,US
5015,"3300 BLOCK  GRIFFIN ST","3300 GRIFFIN ST","Fort Worth",TX,32.644601,-97.367239,0.8,street_center,,"Griffin St","Fort Worth",TX,"Tarrant County",76133,US
5016,"3300 BLOCK  HALE AVE","3300 HALE AVE","Fort Worth",TX,32.803902,-97.328855,1,range_interpolation,3300,"Hale Ave","Fort Worth",TX,"Tarrant County",76106,US
5017,"3300 BLOCK  HAMILTON AVE","3300 HAMILTON AVE","Fort Worth",TX,32.75466,-97.364457,1,range_interpolation,3300,"Hamilton Ave","Fort Worth",TX,"Tarrant County",76107,US
5018,"3300 BLOCK  HANGER AVE","3300 HANGER AVE","Fort Worth",TX,32.720705,-97.278084,1,range_interpolation,3300,"Hanger Ave","Fort Worth",TX,"Tarrant County",76105,US
5019,"3300 BLOCK  HARDEMAN ST","3300 HARDEMAN ST","Fort Worth",TX,32.702525,-97.277807,1,range_interpolation,3300,"Hardeman St","Fort Worth",TX,"Tarrant County",76119,US
5020,"3300 BLOCK  HARDY ST","3300 HARDY ST","Fort Worth",TX,32.80358,-97.336574,1,range_interpolation,3300,"Hardy St","Fort Worth",TX,"Tarrant County",76106,US
5021,"3300 BLOCK  HARTNETT WAY","3300 HARTNETT WAY","Fort Worth",TX,32.771419,-97.291484,0.33,place,,,"Fort Worth",TX,"Tarrant County",76101,US
5022,"3300 BLOCK  HATCHER ST","3300 HATCHER ST","Fort Worth",TX,32.712589,-97.258374,1,range_interpolation,3300,"Hatcher St","Fort Worth",TX,"Tarrant County",76119,US
5023,"3300 BLOCK  HAZELINE RD","3300 HAZELINE RD","Fort Worth",TX,32.7379,-97.277328,1,range_interpolation,3300,"Hazeline Rd","Fort Worth",TX,"Tarrant County",76103,US
5024,"3300 BLOCK  HEDRICK ST","3300 HEDRICK ST","Fort Worth",TX,32.803939,-97.294772,1,range_interpolation,3300,"Hedrick St","Fort Worth",TX,"Tarrant County",76111,US
5025,"3300 BLOCK  HEMPHILL ST","3300 HEMPHILL ST","Fort Worth",TX,32.702123,-97.331668,1,range_interpolation,3300,"Hemphill St","Fort Worth",TX,"Tarrant County",76110,US
5026,"3300 BLOCK  JAMES AVE","3300 JAMES AVE","Fort Worth",TX,32.702165,-97.344976,1,range_interpolation,3300,"James Ave","Fort Worth",TX,"Tarrant County",76110,US
5027,"3300 BLOCK  JOYCE DR","3300 JOYCE DR","Fort Worth",TX,32.724037,-97.442225,1,range_interpolation,3300,"Joyce Dr","Fort Worth",TX,"Tarrant County",76116,US
5028,"3300 BLOCK  LACKLAND RD","3300 LACKLAND RD","Fort Worth",TX,32.723992,-97.434666,1,range_interpolation,3300,"Lackland Rd","Fort Worth",TX,"Tarrant County",76116,US
5029,"3300 BLOCK  LAKE COMO DR","3300 LAKE COMO DR","Fort Worth",TX,32.728172,-97.401832,1,range_interpolation,3300,"Lake Como Dr","Fort Worth",TX,"Tarrant County",76107,US
5030,"3300 BLOCK  LAKELAND ST","3300 LAKELAND ST","Fort Worth",TX,32.803947,-97.296585,1,range_interpolation,3300,"Lakeland St","Fort Worth",TX,"Tarrant County",76111,US
5031,"3300 BLOCK  LAS VEGAS TRL","3300 LAS VEGAS TRL","Fort Worth",TX,32.726278,-97.465509,1,range_interpolation,3300,"Las Vegas Trl","Fort Worth",TX,"Tarrant County",76116,US
5032,"3300 BLOCK  LAWNDALE AVE","3300 LAWNDALE AVE","Fort Worth",TX,32.657912,-97.362872,1,range_interpolation,3300,"Lawndale Ave","Fort Worth",TX,"Tarrant County",76133,US
5033,"3300 BLOCK  LAWNWOOD ST","3300 LAWNWOOD ST","Fort Worth",TX,32.761088,-97.300512,1,range_interpolation,3300,"Lawnwood St","Fort Worth",TX,"Tarrant County",76111,US
5034,"3300 BLOCK  LITTLEJOHN AVE","3300 LITTLEJOHN AVE","Fort Worth",TX,32.719816,-97.278099,1,range_interpolation,3300,"Littlejohn Ave","Fort Worth",TX,"Tarrant County",76105,US
5035,"3300 BLOCK  LOCKE AVE","3300 LOCKE AVE","Fort Worth",TX,32.731571,-97.365185,1,range_interpolation,3300,"Locke Ave","Fort Worth",TX,"Tarrant County",76107,US
5036,"3300 BLOCK  MACIE AVE","3300 MACIE AVE","Fort Worth",TX,32.807579,-97.375463,1,range_interpolation,3300,"Macie Ave","Fort Worth",TX,"Tarrant County",76106,US
5037,"3300 BLOCK  MANSFIELD HWY","3300 MANSFIELD HWY","Fort Worth",TX,32.681988,-97.277823,1,range_interpolation,3300,"Mansfield Hwy","Fort Worth",TX,"Tarrant County",76119,US
5038,"3300 BLOCK  MARQUETTE CT","3300 MARQUETTE CT","Fort Worth",TX,32.701723,-97.379601,1,range_interpolation,3300,"Marquette Ct","Fort Worth",TX,"Tarrant County",76109,US
5039,"3300 BLOCK  MARTIN ST","3300 MARTIN ST","Fort Worth",TX,32.692109,-97.277784,1,range_interpolation,3300,"Martin St","Fort Worth",TX,"Tarrant County",76119,US
5040,"3300 BLOCK  MAY ST","3300 MAY ST","Fort Worth",TX,32.702103,-97.328491,1,range_interpolation,3300,"May St","Fort Worth",TX,"Tarrant County",76110,US
5041,"3300 BLOCK  MEADOWBROOK DR","3300 MEADOWBROOK DR","Fort Worth",TX,32.74374,-97.278093,1,range_interpolation,3300,"Meadowbrook Dr","Fort Worth",TX,"Tarrant County",76103,US
5042,"3300 BLOCK  MEADOWMOOR","3300 MEADOWMOOR","Fort Worth",TX,32.639632,-97.369602,1,range_interpolation,3300,Meadowmoor,"Fort Worth",TX,"Tarrant County",76133,US
5043,"3300 BLOCK  MEDINA AVE","3300 MEDINA AVE","Fort Worth",TX,32.678284,-97.363647,1,range_interpolation,3300,"Medina Ave","Fort Worth",TX,"Tarrant County",76133,US
5044,"3300 BLOCK  MESQUITE RD","3300 MESQUITE RD","Fort Worth",TX,32.803594,-97.292757,1,range_interpolation,3300,"Mesquite Rd","Fort Worth",TX,"Tarrant County",76111,US
5045,"3300 BLOCK  MILLER AVE","3300 MILLER AVE","Fort Worth",TX,32.713503,-97.26302,1,range_interpolation,3300,"Miller Ave","Fort Worth",TX,"Tarrant County",76119,US
5046,"3300 BLOCK  MISSION ST","3300 MISSION ST","Fort Worth",TX,32.700726,-97.356611,1,range_interpolation,3300,"Mission St","Fort Worth",TX,"Tarrant County",76109,US
5047,"3300 BLOCK  MOBERLY ST","3300 MOBERLY ST","Fort Worth",TX,32.689917,-97.277874,1,range_interpolation,3300,"Moberly St","Fort Worth",TX,"Tarrant County",76119,US
5048,"3300 BLOCK  MONTAGUE ST","3300 MONTAGUE ST","Fort Worth",TX,32.704996,-97.277828,1,range_interpolation,3300,"Montague St","Fort Worth",TX,"Tarrant County",76119,US
5049,"3300 BLOCK  NORTH FWY SR NB","3300 NORTH FREEWAY SERVICE ROAD","Fort Worth",TX,32.804353,-97.316935,1,range_interpolation,3300,"North Fwy","Fort Worth",TX,"Tarrant County",76111,US
5050,"3300 BLOCK  NORTH FWY SR SB","3300 NORTH FREEWAY SERVICE ROAD","Fort Worth",TX,32.804353,-97.316935,1,range_interpolation,3300,"North Fwy","Fort Worth",TX,"Tarrant County",76111,US
5051,"3300 BLOCK  NORTHEAST LOOP 820 FWY","3300 NORTHEAST LOOP 820 FREEWAY","Fort Worth",TX,32.811341,-97.209369,0.8,range_interpolation,3300,"NE Loop 820","Fort Worth",TX,"Tarrant County",76118,US
5052,"3300 BLOCK  NORTHWEST LOOP 820 FWY","3300 NORTHWEST LOOP 820 FREEWAY","Fort Worth",TX,32.819484,-97.399636,0.8,range_interpolation,3300,"NW Loop 820","Fort Worth",TX,"Tarrant County",76106,US
5053,"3300 BLOCK  OAKMOUNT DR","3300 OAKMOUNT DR","Fort Worth",TX,32.860023,-97.309563,1,range_interpolation,3300,"Oakmount Dr","Fort Worth",TX,"Tarrant County",76137,US
5054,"3300 BLOCK  PANOLA AVE","3300 PANOLA AVE","Fort Worth",TX,32.738574,-97.277982,1,range_interpolation,3300,"Panola Ave","Fort Worth",TX,"Tarrant County",76103,US
5055,"3300 BLOCK  PARK LAKE DR","3300 PARK LAKE DR","Fort Worth",TX,32.653426,-97.36562,1,range_interpolation,3300,"Park Lake Dr","Fort Worth",TX,"Tarrant County",76133,US
5056,"3300 BLOCK  PATE DR","3300 PATE DR","Fort Worth",TX,32.713023,-97.260408,1,range_interpolation,3300,"Pate Dr","Fort Worth",TX,"Tarrant County",76119,US
5057,"3300 BLOCK  PINE HURST TRL","3300 PINE HURST TRL","Fort Worth",TX,32.859719,-97.309848,1,range_interpolation,3300,"Pine Hurst Trl","Fort Worth",TX,"Tarrant County",76137,US
5058,"3300 BLOCK  PURINGTON AVE","3300 PURINGTON AVE","Fort Worth",TX,32.742567,-97.277898,1,range_interpolation,3300,"Purington Ave","Fort Worth",TX,"Tarrant County",76103,US
5059,"3300 BLOCK  RACE ST","3300 RACE ST","Fort Worth",TX,32.772966,-97.300733,1,range_interpolation,3300,"Race St","Fort Worth",TX,"Tarrant County",76111,US
5060,"3300 BLOCK  RALEIGH DR","3300 RALEIGH DR","Fort Worth",TX,32.625835,-97.368337,1,range_interpolation,3300,"Raleigh Dr","Fort Worth",TX,"Tarrant County",76123,US
5061,"3300 BLOCK  REAGAN DR","3300 REAGAN DR","Fort Worth",TX,32.723595,-97.447836,1,range_interpolation,3300,"Reagan Dr","Fort Worth",TX,"Tarrant County",76116,US
5062,"3300 BLOCK  RIVER PARK DR","3300 RIVER PARK DR","Fort Worth",TX,32.69969,-97.424503,1,range_interpolation,3300,"River Park Dr","Fort Worth",TX,"Tarrant County",76116,US
5063,"3300 BLOCK  RIVEROAD CT","3300 RIVEROAD CT","Fort Worth",TX,32.701682,-97.42222,1,range_interpolation,3300,"Riveroad Ct","Fort Worth",TX,"Tarrant County",76116,US
5064,"3300 BLOCK  ROCK SPRINGS RD","3300 ROCK SPRINGS RD","Fort Worth",TX,32.734898,-97.365863,1,range_interpolation,3300,"Rock Springs Rd","Fort Worth",TX,"Tarrant County",76107,US
5065,"3300 BLOCK  RODDY DR","3300 RODDY DR","Fort Worth",TX,32.624733,-97.367351,1,range_interpolation,3300,"Roddy Dr","Fort Worth",TX,"Tarrant County",76123,US
5066,"3300 BLOCK  ROGERS AVE","3300 ROGERS AVE","Fort Worth",TX,32.7017,-97.361567,1,range_interpolation,3300,"Rogers Ave","Fort Worth",TX,"Tarrant County",76109,US
5067,"3300 BLOCK  ROOSEVELT AVE","3300 ROOSEVELT AVE","Fort Worth",TX,32.804844,-97.367885,1,range_interpolation,3300,"Roosevelt Ave","Fort Worth",TX,"Tarrant County",76106,US
5068,"3300 BLOCK  RYAN AVE","3300 RYAN AVE","Fort Worth",TX,32.702165,-97.342874,1,range_interpolation,3300,"Ryan Ave","Fort Worth",TX,"Tarrant County",76110,US
5069,"3300 BLOCK  SAGESTONE DR","3300 SAGESTONE DR","Fort Worth",TX,32.771419,-97.291484,0.33,place,,,"Fort Worth",TX,"Tarrant County",76101,US
5070,"3300 BLOCK  SAPPINGTON PL","3300 SAPPINGTON PL","Fort Worth",TX,32.723984,-97.433292,1,range_interpolation,3300,"Sappington Pl","Fort Worth",TX,"Tarrant County",76116,US
5071,"3300 BLOCK  SCHADT ST","3300 SCHADT ST","Fort Worth",TX,32.803558,-97.335473,1,range_interpolation,3300,"Schadt St","Fort Worth",TX,"Tarrant County",76106,US
5072,"3300 BLOCK  SOUTH FWY SR SB","3300 SOUTH FREEWAY SERVICE ROAD","Fort Worth",TX,32.702094,-97.320943,1,range_interpolation,3300,"South Fwy","Fort Worth",TX,"Tarrant County",76110,US
5073,"3300 BLOCK  SOUTHPARK LN","3300 SOUTHPARK LN","Fort Worth",TX,32.643848,-97.369474,1,range_interpolation,3300,"Southpark Ln","Fort Worth",TX,"Tarrant County",76133,US
5074,"3300 BLOCK  SOUTHWEST LOOP 820 FWY","3300 SOUTHWEST LOOP 820 FREEWAY","Fort Worth",TX,32.670233,-97.362552,1,range_interpolation,3300,"SW Loop 820","Fort Worth",TX,"Tarrant County",76133,US
5075,"3300 BLOCK  SPRINGDALE RD","3300 SPRINGDALE RD","Fort Worth",TX,32.787917,-97.299453,1,range_interpolation,3300,"Springdale Rd","Fort Worth",TX,"Tarrant County",76111,US
5076,"3300 BLOCK  STANLEY AVE","3300 STANLEY AVE","Fort Worth",TX,32.702154,-97.346008,1,range_interpolation,3300,"Stanley Ave","Fort Worth",TX,"Tarrant County",76110,US
5077,"3300 BLOCK  STEAMBOAT DR","3300 STEAMBOAT DR","Fort Worth",TX,32.622539,-97.36705,1,range_interpolation,3300,"Steamboat Dr","Fort Worth",TX,"Tarrant County",76123,US
5078,"3300 BLOCK  STRONG AVE","3300 STRONG AVE","Fort Worth",TX,32.716177,-97.278109,1,range_interpolation,3300,"Strong Ave","Fort Worth",TX,"Tarrant County",76105,US
5079,"3300 BLOCK  SUFFOLK DR","3300 SUFFOLK DR","Fort Worth",TX,32.687285,-97.363329,1,range_interpolation,3300,"Suffolk Dr","Fort Worth",TX,"Tarrant County",76133,US
5080,"3300 BLOCK  SYCAMORE SCHOOL RD","3300 SYCAMORE SCHOOL RD","Fort Worth",TX,32.634976,-97.367397,1,range_interpolation,3300,"Sycamore School Rd","Fort Worth",TX,"Tarrant County",76133,US
5081,"3300 BLOCK  TEXAS SAGE TRL","3300 TEXAS SAGE TRL","Fort Worth",TX,32.82532,-97.355449,0.8,street_center,,"Texas Way","Fort Worth",TX,"Tarrant County",76106,US
5082,"3300 BLOCK  THANNISCH AVE","3300 THANNISCH AVE","Fort Worth",TX,32.715282,-97.278107,1,range_interpolation,3300,"Thannisch Ave","Fort Worth",TX,"Tarrant County",76105,US
5083,"3300 BLOCK  VANDERGRIFF CT","3300 VANDERGRIFF CT","Fort Worth",TX,32.808612,-97.377406,1,range_interpolation,3300,"Vandergriff Ct","Fort Worth",TX,"Tarrant County",76106,US
5084,"3300 BLOCK  VANHORN AVE","3300 VANHORN AVE","Fort Worth",TX,32.756427,-97.301636,1,range_interpolation,3300,"Vanhorn Ave","Fort Worth",TX,"Tarrant County",76111,US
5085,"3300 BLOCK  VIEW ST","3300 VIEW ST","Fort Worth",TX,32.744976,-97.278091,1,range_interpolation,3300,"View St","Fort Worth",TX,"Tarrant County",76103,US
5086,"3300 BLOCK  WALTRIP WAY","3300 WALTRIP WAY","Fort Worth",TX,32.771419,-97.291484,0.33,place,,,"Fort Worth",TX,"Tarrant County",76101,US
5087,"3300 BLOCK  WAYSIDE AVE","3300 WAYSIDE AVE","Fort Worth",TX,32.702182,-97.351338,1,range_interpolation,3300,"Wayside Ave","Fort Worth",TX,"Tarrant County",76110,US
5088,"3300 BLOCK  WEST LOOP 820 SOUTH","3300 WEST LOOP 820 SOUTH","Fort Worth",TX,32.736798,-97.479091,0.8,street_center,,"S Loop 820","Fort Worth",TX,"Tarrant County",76116,US
5089,"3300 BLOCK  WESTRIDGE AVE","3300 WESTRIDGE AVE","Fort Worth",TX,32.728512,-97.416658,1,range_interpolation,3300,"Westridge Ave","Fort Worth",TX,"Tarrant County",76116,US
5090,"3300 BLOCK  WHITTIER ST","3300 WHITTIER ST","Fort Worth",TX,32.680385,-97.364804,1,range_interpolation,3300,"Whittier St","Fort Worth",TX,"Tarrant County",76133,US
5091,"3300 BLOCK  WINTHROP AVE","3300 WINTHROP AVE","Fort Worth",TX,32.728672,-97.415047,1,range_interpolation,3300,"Winthrop Ave","Fort Worth",TX,"Tarrant County",76116,US
5092,"3300 BLOCK  WOODLARK DR","3300 WOODLARK DR","Fort Worth",TX,32.633008,-97.369408,1,range_interpolation,3300,"Woodlark Dr","Fort Worth",TX,"Tarrant County",76123,US
5093,"3300 BLOCK D ALTAMESA BL","3300 ALTAMESA BL","Fort Worth",TX,32.64925,-97.362444,1,range_interpolation,3300,"Altamesa Blvd","Fort Worth",TX,"Tarrant County",76133,US
5094,"3300 BLOCK D BENBROOK BL","3300 BENBROOK BL","Fort Worth",TX,32.701438,-97.363581,0.9,range_interpolation,3300,"Benbrook Blvd","Fort Worth",TX,"Tarrant County",76109,US
5095,"3300 BLOCK D BIGHAM BL","3300 BIGHAM BL","Fort Worth",TX,32.724708,-97.427479,1,range_interpolation,3300,"Bigham Blvd","Fort Worth",TX,"Tarrant County",76116,US
5096,"3300 BLOCK D CAMP BOWIE BL","3300 CAMP BOWIE BL","Fort Worth",TX,32.750269,-97.36443,1,range_interpolation,3300,"Camp Bowie Blvd","Fort Worth",TX,"Tarrant County",76107,US
5097,"3300 BLOCK D HAMPSHIRE BL","3300 HAMPSHIRE BL","Fort Worth",TX,32.737053,-97.277121,1,range_interpolation,3300,"Hampshire Blvd","Fort Worth",TX,"Tarrant County",76103,US
5098,"3300 BLOCK D HANNA RANCH BL","3300 HANNA RANCH BL","Fort Worth",TX,32.637422,-97.271688,1,range_interpolation,3300,"Hanna Ranch Blvd","Fort Worth",TX,"Tarrant County",76140,US
5099,"3300 BLOCK D MEACHAM BL","3300 MEACHAM BL","Fort Worth",TX,32.824018,-97.301327,1,range_interpolation,3300,"Meacham Blvd","Fort Worth",TX,"Tarrant County",76137,US
5100,"3300 BLOCK D MITCHELL BL","3300 MITCHELL BL","Fort Worth",TX,32.713205,-97.288744,1,range_interpolation,3300,"Mitchell Blvd","Fort Worth",TX,"Tarrant County",76105,US
5101,"3300 BLOCK D PARK RIDGE BL","3300 PARK RIDGE BL","Fort Worth",TX,32.871347,-97.495683,0.8,street_center,,"Park Rd","Fort Worth",TX,"Tarrant County",76135,US
5102,"3300 BLOCK D TEX BL","3300 TEX BL","Fort Worth",TX,32.72473,-97.430405,1,range_interpolation,3300,"Tex Blvd","Fort Worth",TX,"Tarrant County",76116,US
5103,"3300 BLOCK D VAUGHN BL","3300 VAUGHN BL","Fort Worth",TX,32.71316,-97.279877,1,range_interpolation,3300,"Vaughn Blvd","Fort Worth",TX,"Tarrant County",76119,US
5104,"3300 BLOCK D WESTERN CENTER BL","3300 WESTERN CENTER BL","Fort Worth",TX,32.86085,-97.264597,0.8,street_center,,"Western Center Blvd","Fort Worth",TX,"Tarrant County",76148,US
5105,"3300 BLOCK Y CHAMPIONSHIP PK","3300 CHAMPIONSHIP PK","Fort Worth",TX,33.020411,-97.28818,1,range_interpolation,3300,"Championship Pkwy","Fort Worth",TX,"Denton County",76177,US
5106,"3300 BLOCK Y EAGLE PK","3300 EAGLE PK","Fort Worth",TX,33.001988,-97.29736,0.8,street_center,,"Eagle Pkwy","Fort Worth",TX,"Denton County",76177,US
5107,"3300 BLOCK Y HERITAGE TRACE PK","3300 HERITAGE TRACE PK","Fort Worth",TX,32.91546,-97.297562,0.8,street_center,,"Heritage Trace Pkwy",Keller,TX,"Tarrant County",76244,US
5108,"3300 BLOCK Y TARRANT PK","3300 TARRANT PK","Fort Worth",TX,32.713892,-97.278129,1,range_interpolation,3300,"Tarrant Rd","Fort Worth",TX,"Tarrant County",76105,US
5109,"3400 BLOCK  5TH AVE","3400 5TH AVE","Fort Worth",TX,32.700474,-97.339614,1,range_interpolation,3400,"5th Ave","Fort Worth",TX,"Tarrant County",76110,US
5110,"3400 BLOCK  8TH AVE","3400 8TH AVE","Fort Worth",TX,32.700357,-97.343943,1,range_interpolation,3400,"8th Ave","Fort Worth",TX,"Tarrant County",76110,US
5111,"3400 BLOCK  ACORN RUN ST","3400 ACORN RUN ST","Fort Worth",TX,32.699741,-97.383917,1,range_interpolation,3400,"Acorn Run St","Fort Worth",TX,"Tarrant County",76109,US
5112,"3400 BLOCK  ADA AVE","3400 ADA AVE","Fort Worth",TX,32.721592,-97.276618,1,range_interpolation,3400,"Ada Ave","Fort Worth",TX,"Tarrant County",76105,US
5113,"3400 BLOCK  ALEMEDA ST","3400 ALEMEDA ST","Fort Worth",TX,32.724403,-97.48372,1,range_interpolation,3400,"Alemeda St","Fort Worth",TX,"Tarrant County",76126,US
5114,"3400 BLOCK  ALTA MERE DR","3400 ALTA MERE DR","Fort Worth",TX,32.721823,-97.441257,0.9,range_interpolation,3400,"Altamere Ave","Fort Worth",TX,"Tarrant County",76116,US
5115,"3400 BLOCK  ANGLE AVE","3400 ANGLE AVE","Fort Worth",TX,32.807181,-97.367525,1,range_interpolation,3400,"Angle Ave","Fort Worth",TX,"Tarrant County",76106,US
5116,"3400 BLOCK  ASHLAND AVE","3400 ASHLAND AVE","Fort Worth",TX,32.726984,-97.384172,1,range_interpolation,3400,"Ashland Ave","Fort Worth",TX,"Tarrant County",76107,US
5117,"3400 BLOCK  AVE C","3400 AVE C","Fort Worth",TX,32.771419,-97.291484,1,place,,,"Fort Worth",TX,"Tarrant County",76101,US
5118,"3400 BLOCK  AVE D","3400 AVE D","Fort Worth",TX,32.771419,-97.291484,1,place,,,"Fort Worth",TX,"Tarrant County",76101,US
5119,"3400 BLOCK  AVE E","3400 AVE E","Fort Worth",TX,32.771419,-97.291484,1,place,,,"Fort Worth",TX,"Tarrant County",76101,US
5120,"3400 BLOCK  AVE G","3400 AVE G","Fort Worth",TX,32.771419,-97.291484,1,place,,,"Fort Worth",TX,"Tarrant County",76101,US
5121,"3400 BLOCK  AVE H","3400 AVE H","Fort Worth",TX,32.771419,-97.291484,1,place,,,"Fort Worth",TX,"Tarrant County",76101,US
5122,"3400 BLOCK  AVE I","3400 AVE I","Fort Worth",TX,32.771419,-97.291484,1,place,,,"Fort Worth",TX,"Tarrant County",76101,US
5123,"3400 BLOCK  AVE K","3400 AVE K","Fort Worth",TX,32.771419,-97.291484,1,place,,,"Fort Worth",TX,"Tarrant County",76101,US
5124,"3400 BLOCK  AVE L","3400 AVE L","Fort Worth",TX,32.771419,-97.291484,1,place,,,"Fort Worth",TX,"Tarrant County",76101,US
5125,"3400 BLOCK  AVE M","3400 AVE M","Fort Worth",TX,32.771419,-97.291484,1,place,,,"Fort Worth",TX,"Tarrant County",76101,US
5126,"3400 BLOCK  AVE N","3400 AVE N","Fort Worth",TX,32.771419,-97.291484,1,place,,,"Fort Worth",TX,"Tarrant County",76101,US
5127,"3400 BLOCK  AZLE AVE","3400 AZLE AVE","Fort Worth",TX,32.806237,-97.388415,1,range_interpolation,3400,"Azle Ave","Fort Worth",TX,"Tarrant County",76106,US
5128,"3400 BLOCK  BABY DOE CT","3400 BABY DOE CT","Fort Worth",TX,32.86325,-97.308586,1,range_interpolation,3400,"Baby Doe Ct","Fort Worth",TX,"Tarrant County",76137,US
5129,"3400 BLOCK  BANDERA RD","3400 BANDERA RD","Fort Worth",TX,32.722481,-97.470081,1,range_interpolation,3400,"Bandera Rd","Fort Worth",TX,"Tarrant County",76116,US
5130,"3400 BLOCK  BAYLOR ST","3400 BAYLOR ST","Fort Worth",TX,32.70376,-97.275679,1,range_interpolation,3400,"Baylor St","Fort Worth",TX,"Tarrant County",76119,US
5131,"3400 BLOCK  BEEKMAN DR","3400 BEEKMAN DR","Fort Worth",TX,32.956122,-97.286146,1,range_interpolation,3400,"Beekman Dr",Keller,TX,"Tarrant County",76244,US
5132,"3400 BLOCK  BELLWOOD CT","3400 BELLWOOD CT","Fort Worth",TX,32.700113,-97.398811,1,range_interpolation,3400,"Bellwood Ct","Fort Worth",TX,"Tarrant County",76109,US
5133,"3400 BLOCK  BETHLEHEM AVE","3400 BETHLEHEM AVE","Fort Worth",TX,32.805718,-97.311266,1,range_interpolation,3400,"Bethlehem Ave","Fort Worth",TX,"Tarrant County",76111,US
5134,"3400 BLOCK  BIDEKER AVE","3400 BIDEKER AVE","Fort Worth",TX,32.718898,-97.27662,1,range_interpolation,3400,"Bideker Ave","Fort Worth",TX,"Tarrant County",76105,US
5135,"3400 BLOCK  BIRD ST","3400 BIRD ST","Fort Worth",TX,32.777238,-97.298487,1,range_interpolation,3400,"Bird St","Fort Worth",TX,"Tarrant County",76111,US
5136,"3400 BLOCK  BLUEBONNET CIR","3400 BLUEBONNET CIR","Fort Worth",TX,32.632018,-97.496305,0.8,street_center,,"Bluebonnet Hilltop Dr","Fort Worth",TX,"Tarrant County",76126,US
5137,"3400 BLOCK  BRADY AVE","3400 BRADY AVE","Fort Worth",TX,32.691333,-97.365087,1,range_interpolation,3400,"Brady Ave","Fort Worth",TX,"Tarrant County",76109,US
5138,"3400 BLOCK  BRANDON LN","3400 BRANDON LN","Fort Worth",TX,32.724108,-97.46383,1,range_interpolation,3400,"Brandon Ln","Fort Worth",TX,"Tarrant County",76116,US
5139,"3400 BLOCK  BRASWELL DR","3400 BRASWELL DR","Fort Worth",TX,32.799612,-97.319209,0.8,street_center,,"Braswell Dr","Fort Worth",TX,"Tarrant County",76106,US
5140,"3400 BLOCK  BRIGHT ST","3400 BRIGHT ST","Fort Worth",TX,32.712802,-97.271643,1,range_interpolation,3400,"Bright St","Fort Worth",TX,"Tarrant County",76119,US
5141,"3400 BLOCK  BRISTOL RD","3400 BRISTOL RD","Fort Worth",TX,32.755529,-97.366581,1,range_interpolation,3400,"Bristol Rd","Fort Worth",TX,"Tarrant County",76107,US
5142,"3400 BLOCK  BROWN AVE","3400 BROWN AVE","Fort Worth",TX,32.766013,-97.299814,1,range_interpolation,3400,"Brown Ave","Fort Worth",TX,"Tarrant County",76111,US
5143,"3400 BLOCK  BRYANT IRVIN RD","3400 BRYANT IRVIN RD","Fort Worth",TX,32.703276,-97.411967,1,range_interpolation,3400,"Bryant Irvin Rd","Fort Worth",TX,"Tarrant County",76109,US
5144,"3400 BLOCK  BURNETT TANDY DR","3400 BURNETT TANDY DR","Fort Worth",TX,32.744076,-97.366225,1,range_interpolation,3400,"Burnett Tandy Dr","Fort Worth",TX,"Tarrant County",76107,US
5145,"3400 BLOCK  BURTON AVE","3400 BURTON AVE","Fort Worth",TX,32.714368,-97.276649,1,range_interpolation,3400,"Burton Ave","Fort Worth",TX,"Tarrant County",76105,US
5146,"3400 BLOCK  CAYMAN DR","3400 CAYMAN DR","Fort Worth",TX,32.610817,-97.370099,1,range_interpolation,3400,"Cayman Dr","Fort Worth",TX,"Tarrant County",76123,US
5147,"3400 BLOCK  CHARLESTON AVE","3400 CHARLESTON AVE","Fort Worth",TX,32.618391,-97.369078,1,range_interpolation,3400,"Charleston Ave","Fort Worth",TX,"Tarrant County",76123,US
5148,"3400 BLOCK  CHEYENNE RANCH RD","3400 CHEYENNE RANCH RD","Fort Worth",TX,32.807955,-97.400663,1,range_interpolation,3400,"Cheyenne St","Fort Worth",TX,"Tarrant County",76114,US
5149,"3400 BLOCK  CIMMARON TRL","3400 CIMMARON TRL","Fort Worth",TX,32.723206,-97.466206,1,range_interpolation,3400,"Cimmaron Trl","Fort Worth",TX,"Tarrant County",76116,US
5150,"3400 BLOCK  CLINTON AVE","3400 CLINTON AVE","Fort Worth",TX,32.806446,-97.355002,1,range_interpolation,3400,"Clinton Ave","Fort Worth",TX,"Tarrant County",76106,US
5151,"3400 BLOCK  CLUBGATE DR","3400 CLUBGATE DR","Fort Worth",TX,32.854874,-97.310949,1,range_interpolation,3400,"Clubgate Dr","Fort Worth",TX,"Tarrant County",76137,US
5152,"3400 BLOCK  COUNTRY CREEK LN","3400 COUNTRY CREEK LN","Fort Worth",TX,32.629154,-97.368519,1,range_interpolation,3400,"Country Creek Ln","Fort Worth",TX,"Tarrant County",76123,US
5153,"3400 BLOCK  CREEKWOOD LN","3400 CREEKWOOD LN","Fort Worth",TX,32.629961,-97.368535,1,range_interpolation,3400,"Creekwood Ln","Fort Worth",TX,"Tarrant County",76123,US
5154,"3400 BLOCK  CRENSHAW AVE","3400 CRENSHAW AVE","Fort Worth",TX,32.717997,-97.276626,1,range_interpolation,3400,"Crenshaw Ave","Fort Worth",TX,"Tarrant County",76105,US
5155,"3400 BLOCK  CROMART ST","3400 CROMART ST","Fort Worth",TX,32.674144,-97.364837,1,range_interpolation,3400,"Cromart St","Fort Worth",TX,"Tarrant County",76133,US
5156,"3400 BLOCK  DALFORD ST","3400 DALFORD ST","Fort Worth",TX,32.778379,-97.297989,1,range_interpolation,3400,"Dalford St","Fort Worth",TX,"Tarrant County",76111,US
5157,"3400 BLOCK  DECATUR AVE","3400 DECATUR AVE","Fort Worth",TX,32.804836,-97.338749,1,range_interpolation,3400,"Decatur Ave","Fort Worth",TX,"Tarrant County",76106,US
5158,"3400 BLOCK  DRYDEN RD","3400 DRYDEN RD","Fort Worth",TX,32.694271,-97.365152,1,range_interpolation,3400,"Dryden Rd","Fort Worth",TX,"Tarrant County",76109,US
5159,"3400 BLOCK  EAST LOOP 820 SOUTH","3400 EAST LOOP 820 SOUTH","Fort Worth",TX,32.712892,-97.229217,1,range_interpolation,3400,"E Loop 820 S","Fort Worth",TX,"Tarrant County",76119,US
5160,"3400 BLOCK  EAST LOOP 820 SOUTH FWY","3400 EAST LOOP 820 SOUTH FREEWAY","Fort Worth",TX,32.712892,-97.229217,1,range_interpolation,3400,"E Loop 820 S","Fort Worth",TX,"Tarrant County",76119,US
5161,"3400 BLOCK  EASTOVER AVE","3400 EASTOVER AVE","Fort Worth",TX,32.71225,-97.261714,1,range_interpolation,3400,"Eastover Ave","Fort Worth",TX,"Tarrant County",76119,US
5162,"3400 BLOCK  ELLIS AVE","3400 ELLIS AVE","Fort Worth",TX,32.806429,-97.352646,1,range_interpolation,3400,"Ellis Ave","Fort Worth",TX,"Tarrant County",76106,US
5163,"3400 BLOCK  FAIRMEADOWS LN","3400 FAIRMEADOWS LN","Fort Worth",TX,32.628394,-97.368516,1,range_interpolation,3400,"Fairmeadows Ln","Fort Worth",TX,"Tarrant County",76123,US
5164,"3400 BLOCK  FAIRVIEW ST","3400 FAIRVIEW ST","Fort Worth",TX,32.805905,-97.298407,1,range_interpolation,3400,"Fairview St","Fort Worth",TX,"Tarrant County",76111,US
5165,"3400 BLOCK  FITZHUGH AVE","3400 FITZHUGH AVE","Fort Worth",TX,32.717105,-97.276637,1,range_interpolation,3400,"Fitzhugh Ave","Fort Worth",TX,"Tarrant County",76105,US
5166,"3400 BLOCK  FOREST CREEK DR","3400 FOREST CREEK DR","Fort Worth",TX,32.631109,-97.369376,1,range_interpolation,3400,"Forest Creek Dr","Fort Worth",TX,"Tarrant County",76123,US
5167,"3400 BLOCK  FRAZIER AVE","3400 FRAZIER AVE","Fort Worth",TX,32.7012,-97.350303,1,range_interpolation,3400,"Frazier Ave","Fort Worth",TX,"Tarrant County",76110,US
5168,"3400 BLOCK  GALVEZ AVE","3400 GALVEZ AVE","Fort Worth",TX,32.76207,-97.299319,1,range_interpolation,3400,"Galvez Ave","Fort Worth",TX,"Tarrant County",76111,US
5169,"3400 BLOCK  GLASS MOUNTAIN TRL","3400 GLASS MOUNTAIN TRL","Fort Worth",TX,32.771419,-97.291484,0.33,place,,,"Fort Worth",TX,"Tarrant County",76101,US
5170,"3400 BLOCK  GORDON AVE","3400 GORDON AVE","Fort Worth",TX,32.7012,-97.348155,1,range_interpolation,3400,"Gordon Ave","Fort Worth",TX,"Tarrant County",76110,US
5171,"3400 BLOCK  GREEN RIDGE","3400 GREEN RIDGE","Fort Worth",TX,32.638111,-97.368028,1,range_interpolation,3400,"Green Rdg","Fort Worth",TX,"Tarrant County",76133,US
5172,"3400 BLOCK  GRIFFIN ST","3400 GRIFFIN ST","Fort Worth",TX,32.644313,-97.368581,1,range_interpolation,3400,"Griffin St","Fort Worth",TX,"Tarrant County",76133,US
5173,"3400 BLOCK  GUADALUPE RD","3400 GUADALUPE RD","Fort Worth",TX,32.722444,-97.466147,1,range_interpolation,3400,"Guadalupe Rd","Fort Worth",TX,"Tarrant County",76116,US
5174,"3400 BLOCK  HALF MOON DR","3400 HALF MOON DR","Fort Worth",TX,32.805666,-97.297457,1,range_interpolation,3400,"Half Moon Dr","Fort Worth",TX,"Tarrant County",76111,US
5175,"3400 BLOCK  HALLORAN ST","3400 HALLORAN ST","Fort Worth",TX,32.726586,-97.409781,0.8,street_center,,"Halloran St","Fort Worth",TX,"Tarrant County",76107,US
5176,"3400 BLOCK  HAMILTON AVE","3400 HAMILTON AVE","Fort Worth",TX,32.754682,-97.366583,1,range_interpolation,3400,"Hamilton Ave","Fort Worth",TX,"Tarrant County",76107,US
5177,"3400 BLOCK  HARDEMAN ST","3400 HARDEMAN ST","Fort Worth",TX,32.702528,-97.275691,1,range_interpolation,3400,"Hardeman St","Fort Worth",TX,"Tarrant County",76119,US
5178,"3400 BLOCK  HATCHER ST","3400 HATCHER ST","Fort Worth",TX,32.711872,-97.258403,1,range_interpolation,3400,"Hatcher St","Fort Worth",TX,"Tarrant County",76119,US
5179,"3400 BLOCK  HAZELINE RD","3400 HAZELINE RD","Fort Worth",TX,32.737666,-97.276116,1,range_interpolation,3400,"Hazeline Rd","Fort Worth",TX,"Tarrant County",76103,US
5180,"3400 BLOCK  HEATHERBEND ST","3400 HEATHERBEND ST","Fort Worth",TX,32.622961,-97.367316,1,range_interpolation,3400,"Heatherbend St","Fort Worth",TX,"Tarrant County",76123,US
5181,"3400 BLOCK  HEMPHILL ST","3400 HEMPHILL ST","Fort Worth",TX,32.70031,-97.331678,1,range_interpolation,3400,"Hemphill St","Fort Worth",TX,"Tarrant County",76110,US
5182,"3400 BLOCK  HERVIE ST","3400 HERVIE ST","Fort Worth",TX,32.727167,-97.402521,1,range_interpolation,3400,"Hervie St","Fort Worth",TX,"Tarrant County",76107,US
5183,"3400 BLOCK  HIDDEN CANYON RD","3400 HIDDEN CANYON RD","Fort Worth",TX,32.726343,-97.399034,0.8,street_center,,"Houghton Ave","Fort Worth",TX,"Tarrant County",76107,US
5184,"3400 BLOCK  HIGH RIVER RD","3400 HIGH RIVER RD","Fort Worth",TX,32.810285,-97.04203,1,range_interpolation,3400,"High River Rd","Fort Worth",TX,"Tarrant County",76155,US
5185,"3400 BLOCK  HORNE ST","3400 HORNE ST","Fort Worth",TX,32.72722,-97.407967,1,range_interpolation,3400,"Horne St","Fort Worth",TX,"Tarrant County",76107,US
5186,"3400 BLOCK  HOUSE ANDERSON RD","3400 HOUSE ANDERSON RD","Fort Worth",TX,32.737418,-97.247689,0.8,street_center,,"House St","Fort Worth",TX,"Tarrant County",76103,US
5187,"3400 BLOCK  HULEN ST","3400 HULEN ST","Fort Worth",TX,32.727023,-97.387852,0.9,range_interpolation,3400,"S Hulen St","Fort Worth",TX,"Tarrant County",76107,US
5188,"3400 BLOCK  INDALE RD","3400 INDALE RD","Fort Worth",TX,32.722929,-97.428775,1,range_interpolation,3400,"Indale Rd","Fort Worth",TX,"Tarrant County",76116,US
5189,"3400 BLOCK  KELLI CT","3400 KELLI CT","Fort Worth",TX,32.806297,-97.317873,1,range_interpolation,3400,"Kelli Ct","Fort Worth",TX,"Tarrant County",76106,US
5190,"3400 BLOCK  KELVIN AVE","3400 KELVIN AVE","Fort Worth",TX,32.655774,-97.364171,1,range_interpolation,3400,"Kelvin Ave","Fort Worth",TX,"Tarrant County",76133,US
5191,"3400 BLOCK  KENWOOD AVE","3400 KENWOOD AVE","Fort Worth",TX,32.724147,-97.4968,1,range_interpolation,3400,"Kenwood Ave","Fort Worth",TX,"Tarrant County",76116,US
5192,"3400 BLOCK  LACKLAND RD","3400 LACKLAND RD","Fort Worth",TX,32.722154,-97.434498,1,range_interpolation,3400,"Lackland Rd","Fort Worth",TX,"Tarrant County",76116,US
5193,"3400 BLOCK  LAKE COMO DR","3400 LAKE COMO DR","Fort Worth",TX,32.727152,-97.400869,1,range_interpolation,3400,"Lake Como Dr","Fort Worth",TX,"Tarrant County",76107,US
5194,"3400 BLOCK  LASSO RD","3400 LASSO RD","Fort Worth",TX,32.65554,-97.171622,0.8,street_center,,"Lacy Ct",Arlington,TX,"Tarrant County",76017,US
5195,"3400 BLOCK  LAWNDALE AVE","3400 LAWNDALE AVE","Fort Worth",TX,32.656629,-97.364898,1,range_interpolation,3400,"Lawndale Ave","Fort Worth",TX,"Tarrant County",76133,US
5196,"3400 BLOCK  LAWNWOOD ST","3400 LAWNWOOD ST","Fort Worth",TX,32.761079,-97.299326,1,range_interpolation,3400,"Lawnwood St","Fort Worth",TX,"Tarrant County",76111,US
5197,"3400 BLOCK  LEITH AVE","3400 LEITH AVE","Fort Worth",TX,32.67226,-97.36401,1,range_interpolation,3400,"Leith Ave","Fort Worth",TX,"Tarrant County",76133,US
5198,"3400 BLOCK  LINCOLN AVE","3400 LINCOLN AVE","Fort Worth",TX,32.782707,-97.359073,0.8,street_center,,"Lincoln Ave","Fort Worth",TX,"Tarrant County",76164,US
5199,"3400 BLOCK  LIVINGSTON AVE","3400 LIVINGSTON AVE","Fort Worth",TX,32.701191,-97.3471,1,range_interpolation,3400,"Livingston Ave","Fort Worth",TX,"Tarrant County",76110,US
5200,"3400 BLOCK  LOIS ST","3400 LOIS ST","Fort Worth",TX,32.712319,-97.276664,1,range_interpolation,3400,"Lois St","Fort Worth",TX,"Tarrant County",76119,US
5201,"3400 BLOCK  LONGVUE AVE","3400 LONGVUE AVE","Fort Worth",TX,32.724425,-97.495311,1,range_interpolation,3400,"Longvue Ave","Fort Worth",TX,"Tarrant County",76116,US
5202,"3400 BLOCK  LOVELL AVE","3400 LOVELL AVE","Fort Worth",TX,32.730712,-97.36634,1,range_interpolation,3400,"Lovell Ave","Fort Worth",TX,"Tarrant County",76107,US
5203,"3400 BLOCK  LULU ST","3400 LULU ST","Fort Worth",TX,32.804554,-97.333484,1,range_interpolation,3400,"Lulu St","Fort Worth",TX,"Tarrant County",76106,US
5204,"3400 BLOCK  MANSFIELD CARDINAL RD","3400 MANSFIELD CARDINAL RD","Fort Worth",TX,32.731133,-97.31033,0.8,street_center,,"Mansfield Ave","Fort Worth",TX,"Tarrant County",76104,US
5205,"3400 BLOCK  MANSFIELD HWY","3400 MANSFIELD HWY","Fort Worth",TX,32.680999,-97.275658,1,range_interpolation,3400,"Mansfield Hwy","Fort Worth",TX,"Tarrant County",76119,US
5206,"3400 BLOCK  MARTIN LUTHER KING FWY","3400 MARTIN LUTHER KING FREEWAY","Fort Worth",TX,32.70773,-97.270929,0.8,street_center,,"Martin Luther King Jr Fwy","Fort Worth",TX,"Tarrant County",76119,US
5207,"3400 BLOCK  MARTIN ST","3400 MARTIN ST","Fort Worth",TX,32.69209,-97.27548,1,range_interpolation,3400,"Martin St","Fort Worth",TX,"Tarrant County",76119,US
5208,"3400 BLOCK  MAY ST","3400 MAY ST","Fort Worth",TX,32.700295,-97.328518,1,range_interpolation,3400,"May St","Fort Worth",TX,"Tarrant County",76110,US
5209,"3400 BLOCK  MEADOWMOOR","3400 MEADOWMOOR","Fort Worth",TX,32.639596,-97.368306,1,range_interpolation,3400,Meadowmoor,"Fort Worth",TX,"Tarrant County",76133,US
5210,"3400 BLOCK  MEDINA AVE","3400 MEDINA AVE","Fort Worth",TX,32.67833,-97.366463,1,range_interpolation,3400,"Medina Ave","Fort Worth",TX,"Tarrant County",76133,US
5211,"3400 BLOCK  MESQUITE RD","3400 MESQUITE RD","Fort Worth",TX,32.804896,-97.293074,0.8,range_interpolation,3400,"Mesquite Rd","Fort Worth",TX,"Tarrant County",76111,US
5212,"3400 BLOCK  MILLER AVE","3400 MILLER AVE","Fort Worth",TX,32.713036,-97.263021,1,range_interpolation,3400,"Miller Ave","Fort Worth",TX,"Tarrant County",76119,US
5213,"3400 BLOCK  MILLET AVE","3400 MILLET AVE","Fort Worth",TX,32.72249,-97.276615,1,range_interpolation,3400,"Millet Ave","Fort Worth",TX,"Tarrant County",76105,US
5214,"3400 BLOCK  MINOT AVE","3400 MINOT AVE","Fort Worth",TX,32.659255,-97.364503,1,range_interpolation,3400,"Minot Ave","Fort Worth",TX,"Tarrant County",76133,US
5215,"3400 BLOCK  MISTY VALLEY DR","3400 MISTY VALLEY DR","Fort Worth",TX,32.627376,-97.369306,1,range_interpolation,3400,"Misty Valley Dr","Fort Worth",TX,"Tarrant County",76123,US
5216,"3400 BLOCK  MOBERLY ST","3400 MOBERLY ST","Fort Worth",TX,32.6899,-97.275466,1,range_interpolation,3400,"Moberly St","Fort Worth",TX,"Tarrant County",76119,US
5217,"3400 BLOCK  MONTAGUE ST","3400 MONTAGUE ST","Fort Worth",TX,32.70499,-97.27568,1,range_interpolation,3400,"Montague St","Fort Worth",TX,"Tarrant County",76119,US
5218,"3400 BLOCK  MONTICELLO PARK PL","3400 MONTICELLO PARK PL","Fort Worth",TX,32.756376,-97.366582,1,range_interpolation,3400,"Monticello Park Pl","Fort Worth",TX,"Tarrant County",76107,US
5219,"3400 BLOCK  MULESHOE LN","3400 MULESHOE LN","Fort Worth",TX,32.866011,-97.430273,1,range_interpolation,3400,"Muleshoe Ln","Fort Worth",TX,"Tarrant County",76179,US
5220,"3400 BLOCK  NIES ST","3400 NIES ST","Fort Worth",TX,32.766959,-97.299808,1,range_interpolation,3400,"Nies St","Fort Worth",TX,"Tarrant County",76111,US
5221,"3400 BLOCK  NORTHEAST LOOP 820 FWY","3400 NORTHEAST LOOP 820 FREEWAY","Fort Worth",TX,32.811594,-97.209215,0.8,range_interpolation,3400,"NE Loop 820","Fort Worth",TX,"Tarrant County",76118,US
5222,"3400 BLOCK  OSCAR AVE","3400 OSCAR AVE","Fort Worth",TX,32.804638,-97.331425,1,range_interpolation,3400,"Oscar Ave","Fort Worth",TX,"Tarrant County",76106,US
5223,"3400 BLOCK  PALADIN PL","3400 PALADIN PL","Fort Worth",TX,32.86403,-97.308543,1,range_interpolation,3400,"Paladin Pl","Fort Worth",TX,"Tarrant County",76137,US
5224,"3400 BLOCK  PANOLA AVE","3400 PANOLA AVE","Fort Worth",TX,32.738555,-97.276181,1,range_interpolation,3400,"Panola Ave","Fort Worth",TX,"Tarrant County",76103,US
5225,"3400 BLOCK  PATE DR","3400 PATE DR","Fort Worth",TX,32.712243,-97.260305,1,range_interpolation,3400,"Pate Dr","Fort Worth",TX,"Tarrant County",76119,US
5226,"3400 BLOCK  PEBBLE BEACH WAY","3400 PEBBLE BEACH WAY","Fort Worth",TX,32.859275,-97.30932,1,range_interpolation,3400,"Pebble Beach Way","Fort Worth",TX,"Tarrant County",76137,US
5227,"3400 BLOCK  PINTO TRL","3400 PINTO TRL","Fort Worth",TX,32.722458,-97.467171,1,range_interpolation,3400,"Pinto Trl","Fort Worth",TX,"Tarrant County",76116,US
5228,"3400 BLOCK  PIONEER ST","3400 PIONEER ST","Fort Worth",TX,32.689056,-97.275448,1,range_interpolation,3400,"Pioneer St","Fort Worth",TX,"Tarrant County",76119,US
5229,"3400 BLOCK  PLANTATION LN","3400 PLANTATION LN","Fort Worth",TX,32.620672,-97.369896,1,range_interpolation,3400,"Plantation Ln","Fort Worth",TX,"Tarrant County",76123,US
5230,"3400 BLOCK  PURINGTON AVE","3400 PURINGTON AVE","Fort Worth",TX,32.742556,-97.276426,1,range_interpolation,3400,"Purington Ave","Fort Worth",TX,"Tarrant County",76103,US
5231,"3400 BLOCK  QUAIL RD","3400 QUAIL RD","Fort Worth",TX,32.711947,-97.220331,1,range_interpolation,3400,"Quail Rd","Fort Worth",TX,"Tarrant County",76119,US
5232,"3400 BLOCK  RAIDER DR","3400 RAIDER DR","Fort Worth",TX,32.81244,-97.134583,1,range_interpolation,3400,"Raider Dr",Euless,TX,"Tarrant County",76040,US
5233,"3400 BLOCK  RIVER PARK DR","3400 RIVER PARK DR","Fort Worth",TX,32.699977,-97.424569,1,range_interpolation,3400,"River Park Dr","Fort Worth",TX,"Tarrant County",76116,US
5234,"3400 BLOCK  RIVEROAD CT","3400 RIVEROAD CT","Fort Worth",TX,32.700278,-97.422722,1,range_interpolation,3400,"Riveroad Ct","Fort Worth",TX,"Tarrant County",76116,US
5235,"3400 BLOCK  RIVERSTONE CIR E","3400 RIVERSTONE CIR E","Fort Worth",TX,32.699997,-97.424675,1,range_interpolation,3400,"Riverstone Cir E","Fort Worth",TX,"Tarrant County",76116,US
5236,"3400 BLOCK  RIVERSTONE CIR N","3400 RIVERSTONE CIR N","Fort Worth",TX,32.699677,-97.424561,0.9,range_interpolation,3400,"Riverstone Trl E","Fort Worth",TX,"Tarrant County",76116,US
5237,"3400 BLOCK  RODDY DR","3400 RODDY DR","Fort Worth",TX,32.624525,-97.36922,1,range_interpolation,3400,"Roddy Dr","Fort Worth",TX,"Tarrant County",76123,US
5238,"3400 BLOCK  ROGERS AVE","3400 ROGERS AVE","Fort Worth",TX,32.700721,-97.361613,1,range_interpolation,3400,"Rogers Ave","Fort Worth",TX,"Tarrant County",76109,US
5239,"3400 BLOCK  ROYAL CREST DR","3400 ROYAL CREST DR","Fort Worth",TX,32.638952,-97.269948,1,range_interpolation,3400,"Royal Crest Dr","Fort Worth",TX,"Tarrant County",76140,US
5240,"3400 BLOCK  SCHWARTZ AVE","3400 SCHWARTZ AVE","Fort Worth",TX,32.804554,-97.332427,1,range_interpolation,3400,"Schwartz Ave","Fort Worth",TX,"Tarrant County",76106,US
5241,"3400 BLOCK  SEDAILA RANCH RD","3400 SEDAILA RANCH RD","Fort Worth",TX,32.771419,-97.291484,0.33,place,,,"Fort Worth",TX,"Tarrant County",76101,US
5242,"3400 BLOCK  SOUTH FWY","3400 SOUTH FREEWAY","Fort Worth",TX,32.700273,-97.320887,1,range_interpolation,3400,"South Fwy","Fort Worth",TX,"Tarrant County",76110,US
5243,"3400 BLOCK  SOUTH FWY SR SB","3400 SOUTH FREEWAY SERVICE ROAD","Fort Worth",TX,32.700273,-97.320887,1,range_interpolation,3400,"South Fwy","Fort Worth",TX,"Tarrant County",76110,US
5244,"3400 BLOCK  SOUTH HILLS AVE","3400 SOUTH HILLS AVE","Fort Worth",TX,32.696199,-97.365063,1,range_interpolation,3400,"S Hills Ave","Fort Worth",TX,"Tarrant County",76109,US
5245,"3400 BLOCK  SOUTH MEADOW DR","3400 SOUTH MEADOW DR","Fort Worth",TX,32.640355,-97.368496,1,range_interpolation,3400,"S Meadow Dr","Fort Worth",TX,"Tarrant County",76133,US
5246,"3400 BLOCK  SOUTHPARK LN","3400 SOUTHPARK LN","Fort Worth",TX,32.643837,-97.368715,1,range_interpolation,3400,"Southpark Ln","Fort Worth",TX,"Tarrant County",76133,US
5247,"3400 BLOCK  SOUTHWEST LOOP 820 FWY","3400 SOUTHWEST LOOP 820 FREEWAY","Fort Worth",TX,32.670171,-97.36383,1,range_interpolation,3400,"SW Loop 820","Fort Worth",TX,"Tarrant County",76133,US
5248,"3400 BLOCK  STALCUP RD","3400 STALCUP RD","Fort Worth",TX,32.712918,-97.237902,1,range_interpolation,3400,"Stalcup Rd","Fort Worth",TX,"Tarrant County",76119,US
5249,"3400 BLOCK  STANLEY AVE","3400 STANLEY AVE","Fort Worth",TX,32.701205,-97.346032,1,range_interpolation,3400,"Stanley Ave","Fort Worth",TX,"Tarrant County",76110,US
5250,"3400 BLOCK  STRONG AVE","3400 STRONG AVE","Fort Worth",TX,32.716174,-97.276637,1,range_interpolation,3400,"Strong Ave","Fort Worth",TX,"Tarrant County",76105,US
5251,"3400 BLOCK  STUART DR","3400 STUART DR","Fort Worth",TX,32.700274,-97.324322,1,range_interpolation,3400,"Stuart Dr","Fort Worth",TX,"Tarrant County",76110,US
5252,"3400 BLOCK  SYCAMORE SCHOOL RD","3400 SYCAMORE SCHOOL RD","Fort Worth",TX,32.63498,-97.36859,1,range_interpolation,3400,"Sycamore School Rd","Fort Worth",TX,"Tarrant County",76133,US
5253,"3400 BLOCK  TANACROSS DR","3400 TANACROSS DR","Fort Worth",TX,32.837519,-97.297209,0.8,street_center,,"Tanacross Dr","Fort Worth",TX,"Tarrant County",76137,US
5254,"3400 BLOCK  THADDEUS DR","3400 THADDEUS DR","Fort Worth",TX,32.866805,-97.307295,1,range_interpolation,3400,"Thaddeus Dr","Fort Worth",TX,"Tarrant County",76137,US
5255,"3400 BLOCK  THANNISCH AVE","3400 THANNISCH AVE","Fort Worth",TX,32.715277,-97.276641,1,range_interpolation,3400,"Thannisch Ave","Fort Worth",TX,"Tarrant County",76105,US
5256,"3400 BLOCK  TOM ELLEN ST","3400 TOM ELLEN ST","Fort Worth",TX,32.804802,-97.299876,1,range_interpolation,3400,"Tom Ellen St","Fort Worth",TX,"Tarrant County",76111,US
5257,"3400 BLOCK  TOWNSEND DR","3400 TOWNSEND DR","Fort Worth",TX,32.7012,-97.349235,1,range_interpolation,3400,"Townsend Dr","Fort Worth",TX,"Tarrant County",76110,US
5258,"3400 BLOCK  TRINITY PARK DR","3400 TRINITY PARK DR","Fort Worth",TX,32.746955,-97.35242,0.8,street_center,,"Trinity Park Dr","Fort Worth",TX,"Tarrant County",76107,US
5259,"3400 BLOCK  VIEW ST","3400 VIEW ST","Fort Worth",TX,32.74503,-97.276384,1,range_interpolation,3400,"View St","Fort Worth",TX,"Tarrant County",76103,US
5260,"3400 BLOCK  WADE AVE","3400 WADE AVE","Fort Worth",TX,32.769027,-97.299084,1,range_interpolation,3400,"Wade Ave","Fort Worth",TX,"Tarrant County",76111,US
5261,"3400 BLOCK  WAYLAND DR","3400 WAYLAND DR","Fort Worth",TX,32.657946,-97.364656,1,range_interpolation,3400,"Wayland Dr","Fort Worth",TX,"Tarrant County",76133,US
5262,"3400 BLOCK  WAYSIDE AVE","3400 WAYSIDE AVE","Fort Worth",TX,32.701191,-97.351349,1,range_interpolation,3400,"Wayside Ave","Fort Worth",TX,"Tarrant County",76110,US
5263,"3400 BLOCK  WEBER ST","3400 WEBER ST","Fort Worth",TX,32.804555,-97.334421,1,range_interpolation,3400,"Weber St","Fort Worth",TX,"Tarrant County",76106,US
5264,"3400 BLOCK  WELLINGTON RD","3400 WELLINGTON RD","Fort Worth",TX,32.72165,-97.431789,1,range_interpolation,3400,"Wellington Rd","Fort Worth",TX,"Tarrant County",76116,US
5265,"3400 BLOCK  WESLEY ST","3400 WESLEY ST","Fort Worth",TX,32.805484,-97.293661,1,range_interpolation,3400,"Wesley St","Fort Worth",TX,"Tarrant County",76111,US
5266,"3400 BLOCK  WEST FWY","3400 WEST FREEWAY","Fort Worth",TX,32.733054,-97.380445,0.8,street_center,,"West Fwy","Fort Worth",TX,"Tarrant County",76107,US
5267,"3400 BLOCK  WEST FWY SR WB","3400 WEST FREEWAY SERVICE ROAD","Fort Worth",TX,32.733054,-97.380445,0.8,street_center,,"West Fwy","Fort Worth",TX,"Tarrant County",76107,US
5268,"3400 BLOCK  WEST LOOP 820 SOUTH","3400 WEST LOOP 820 SOUTH","Fort Worth",TX,32.725105,-97.479176,0.8,range_interpolation,3400,"W Loop 820 S","Fort Worth",TX,"Tarrant County",76116,US
5269,"3400 BLOCK  WEST LOOP 820 SOUTH FWY","3400 WEST LOOP 820 SOUTH FREEWAY","Fort Worth",TX,32.725105,-97.479176,0.8,range_interpolation,3400,"W Loop 820 S","Fort Worth",TX,"Tarrant County",76116,US
5270,"3400 BLOCK  WESTERN AVE","3400 WESTERN AVE","Fort Worth",TX,32.727007,-97.385973,1,range_interpolation,3400,"Western Ave","Fort Worth",TX,"Tarrant County",76107,US
5271,"3400 BLOCK  WILBARGER ST","3400 WILBARGER ST","Fort Worth",TX,32.700063,-97.275703,1,range_interpolation,3400,"Wilbarger St","Fort Worth",TX,"Tarrant County",76119,US
5272,"3400 BLOCK  WILLIAMS RD","3400 WILLIAMS RD","Fort Worth",TX,32.722833,-97.450976,1,range_interpolation,3400,"Williams Rd","Fort Worth",TX,"Tarrant County",76116,US
5273,"3400 BLOCK  WILLOWBROOK DR","3400 WILLOWBROOK DR","Fort Worth",TX,32.654366,-97.370708,1,range_interpolation,3400,"Willowbrook Dr","Fort Worth",TX,"Tarrant County",76133,US
5274,"3400 BLOCK  WINIFRED DR","3400 WINIFRED DR","Fort Worth",TX,32.666403,-97.364153,1,range_interpolation,3400,"Winifred Dr","Fort Worth",TX,"Tarrant County",76133,US
5275,"3400 BLOCK  WORTH HILLS DR","3400 WORTH HILLS DR","Fort Worth",TX,32.70029,-97.363962,1,range_interpolation,3400,"Worth Hills Dr","Fort Worth",TX,"Tarrant County",76109,US
5276,"3400 BLOCK D ALTAMESA BL","3400 ALTAMESA BL","Fort Worth",TX,32.649749,-97.367418,1,range_interpolation,3400,"Altamesa Blvd","Fort Worth",TX,"Tarrant County",76133,US
5277,"3400 BLOCK D CAMP BOWIE BL","3400 CAMP BOWIE BL","Fort Worth",TX,32.749298,-97.366777,1,range_interpolation,3400,"Camp Bowie Blvd","Fort Worth",TX,"Tarrant County",76107,US
5278,"3400 BLOCK D FOREST PARK BL","3400 FOREST PARK BL","Fort Worth",TX,32.70121,-97.352296,1,range_interpolation,3400,"Forest Park Blvd","Fort Worth",TX,"Tarrant County",76110,US
5279,"3400 BLOCK D FOSSIL CREEK BL","3400 FOSSIL CREEK BL","Fort Worth",TX,32.847261,-97.312239,1,range_interpolation,3400,"Fossil Creek Blvd","Fort Worth",TX,"Tarrant County",76137,US
5280,"3400 BLOCK D HAMPSHIRE BL","3400 HAMPSHIRE BL","Fort Worth",TX,32.73696,-97.276641,1,range_interpolation,3400,"Hampshire Blvd","Fort Worth",TX,"Tarrant County",76103,US
5281,"3400 BLOCK D MITCHELL BL","3400 MITCHELL BL","Fort Worth",TX,32.712226,-97.28873,1,range_interpolation,3400,"Mitchell Blvd","Fort Worth",TX,"Tarrant County",76105,US
5282,"3400 BLOCK D NORTHERN CROSS BL","3400 NORTHERN CROSS BL","Fort Worth",TX,32.834262,-97.299278,1,range_interpolation,3400,"Northern Cross Blvd","Fort Worth",TX,"Tarrant County",76137,US
5283,"3400 BLOCK D OUTLET BL","3400 OUTLET BL","Fort Worth",TX,32.771419,-97.291484,0.33,place,,,"Fort Worth",TX,"Tarrant County",76101,US
5284,"3400 BLOCK D PARK RIDGE BL","3400 PARK RIDGE BL","Fort Worth",TX,32.871347,-97.495683,0.8,street_center,,"Park Rd","Fort Worth",TX,"Tarrant County",76135,US
5285,"3400 BLOCK D POST OAK BL","3400 POST OAK BL","Fort Worth",TX,32.839652,-97.490144,0.8,street_center,,"Post Oak Ct","Fort Worth",TX,"Tarrant County",76135,US
5286,"3400 BLOCK D RIVER BEND BL","3400 RIVER BEND BL","Fort Worth",TX,32.6777,-97.423787,0.8,street_center,,"River Bend Rd","Fort Worth",TX,"Tarrant County",76132,US
5287,"3400 BLOCK D SLADE BL","3400 SLADE BL","Fort Worth",TX,32.723755,-97.459218,1,range_interpolation,3400,"Slade Blvd","Fort Worth",TX,"Tarrant County",76116,US
5288,"3400 BLOCK D VAUGHN BL","3400 VAUGHN BL","Fort Worth",TX,32.712319,-97.279424,1,range_interpolation,3400,"Vaughn Blvd","Fort Worth",TX,"Tarrant County",76119,US
5289,"3400 BLOCK D VICKERY BL","3400 VICKERY BL","Fort Worth",TX,32.734535,-97.276522,1,range_interpolation,3400,"E Vickery Blvd","Fort Worth",TX,"Tarrant County",76105,US
5290,"3400 BLOCK D WESTERN CENTER BL","3400 WESTERN CENTER BL","Fort Worth",TX,32.86085,-97.264597,0.8,street_center,,"Western Center Blvd","Fort Worth",TX,"Tarrant County",76148,US
5291,"3400 BLOCK S US HWY 287 SR NB","3400 S US HWY 287 SERVICE ROAD","Fort Worth",TX,32.747985,-97.307028,0.8,street_center,,"Poly North Fwy","Fort Worth",TX,"Tarrant County",76102,US
5292,"3400 BLOCK W AVE N CT","3400 W AVE N CT","Fort Worth",TX,32.771419,-97.291484,0.33,place,,,"Fort Worth",TX,"Tarrant County",76101,US
5293,"3400 BLOCK Y TARRANT PK","3400 TARRANT PK","Fort Worth",TX,32.713892,-97.276659,1,range_interpolation,3400,"Tarrant Rd","Fort Worth",TX,"Tarrant County",76105,US
5294,"3500 BLOCK  6TH AVE","3500 6TH AVE","Fort Worth",TX,32.69852,-97.340301,1,range_interpolation,3500,"6th Ave","Fort Worth",TX,"Tarrant County",76110,US
5295,"3500 BLOCK  8TH AVE","3500 8TH AVE","Fort Worth",TX,32.698486,-97.343837,1,range_interpolation,3500,"8th Ave","Fort Worth",TX,"Tarrant County",76110,US
5296,"3500 BLOCK  AIRPORT FWY","3500 AIRPORT FREEWAY","Fort Worth",TX,32.769615,-97.297999,1,range_interpolation,3500,"Airport Fwy","Fort Worth",TX,"Tarrant County",76111,US
5297,"3500 BLOCK  ALDERSYDE DR","3500 ALDERSYDE DR","Fort Worth",TX,32.922089,-97.306511,1,range_interpolation,3500,"Aldersyde Dr",Keller,TX,"Tarrant County",76244,US
5298,"3500 BLOCK  ALTA MERE DR","3500 ALTA MERE DR","Fort Worth",TX,32.71938,-97.442203,0.9,range_interpolation,3500,"Altamere Dr","Fort Worth",TX,"Tarrant County",76116,US
5299,"3500 BLOCK  ALTA VISTA RD","3500 ALTA VISTA RD","Fort Worth",TX,32.8842,-97.244695,0.8,street_center,,"Alta Vista Dr","Fort Worth",TX,"Tarrant County",76148,US
5300,"3500 BLOCK  ALTON RD","3500 ALTON RD","Fort Worth",TX,32.699361,-97.369924,1,range_interpolation,3500,"Alton Rd","Fort Worth",TX,"Tarrant County",76109,US
5301,"3500 BLOCK  ANGLIN DR","3500 ANGLIN DR","Fort Worth",TX,32.70953,-97.251415,1,range_interpolation,3500,"Anglin Dr","Fort Worth",TX,"Tarrant County",76119,US
5302,"3500 BLOCK  ARBOR ST","3500 ARBOR ST","Fort Worth",TX,32.685022,-97.274679,1,range_interpolation,3500,"Arbor St","Fort Worth",TX,"Tarrant County",76119,US
5303,"3500 BLOCK  ARBORLAWN DR","3500 ARBORLAWN DR","Fort Worth",TX,32.698928,-97.389215,1,range_interpolation,3500,"Arborlawn Dr","Fort Worth",TX,"Tarrant County",76109,US
5304,"3500 BLOCK  ASTER CT","3500 ASTER CT","Fort Worth",TX,32.785375,-97.298636,1,range_interpolation,3500,"Aster Ct","Fort Worth",TX,"Tarrant County",76111,US
5305,"3500 BLOCK  AUTUMN DR","3500 AUTUMN DR","Fort Worth",TX,32.698047,-97.380352,1,range_interpolation,3500,"Autumn Dr","Fort Worth",TX,"Tarrant County",76109,US
5306,"3500 BLOCK  AVE E","3500 AVE E","Fort Worth",TX,32.771419,-97.291484,1,place,,,"Fort Worth",TX,"Tarrant County",76101,US
5307,"3500 BLOCK  AVE G","3500 AVE G","Fort Worth",TX,32.771419,-97.291484,1,place,,,"Fort Worth",TX,"Tarrant County",76101,US
5308,"3500 BLOCK  AVE H","3500 AVE H","Fort Worth",TX,32.771419,-97.291484,1,place,,,"Fort Worth",TX,"Tarrant County",76101,US
5309,"3500 BLOCK  AVE I","3500 AVE I","Fort Worth",TX,32.771419,-97.291484,1,place,,,"Fort Worth",TX,"Tarrant County",76101,US
5310,"3500 BLOCK  AVE J","3500 AVE J","Fort Worth",TX,32.771419,-97.291484,1,place,,,"Fort Worth",TX,"Tarrant County",76101,US
5311,"3500 BLOCK  AVE K","3500 AVE K","Fort Worth",TX,32.771419,-97.291484,1,place,,,"Fort Worth",TX,"Tarrant County",76101,US
5312,"3500 BLOCK  AVE L","3500 AVE L","Fort Worth",TX,32.771419,-97.291484,1,place,,,"Fort Worth",TX,"Tarrant County",76101,US
5313,"3500 BLOCK  AVE M","3500 AVE M","Fort Worth",TX,32.771419,-97.291484,1,place,,,"Fort Worth",TX,"Tarrant County",76101,US
5314,"3500 BLOCK  AVE N","3500 AVE N","Fort Worth",TX,32.771419,-97.291484,1,place,,,"Fort Worth",TX,"Tarrant County",76101,US
5315,"3500 BLOCK  BALDWIN ST","3500 BALDWIN ST","Fort Worth",TX,32.686286,-97.33826,0.8,street_center,,"Baldwin Ave","Fort Worth",TX,"Tarrant County",76115,US
5316,"3500 BLOCK  BAYLOR ST","3500 BAYLOR ST","Fort Worth",TX,32.703766,-97.273601,1,range_interpolation,3500,"Baylor St","Fort Worth",TX,"Tarrant County",76119,US
5317,"3500 BLOCK  BEEKMAN DR","3500 BEEKMAN DR","Fort Worth",TX,32.955915,-97.284505,1,range_interpolation,3500,"Beekman Dr",Keller,TX,"Tarrant County",76244,US
5318,"3500 BLOCK  BILGLADE RD","3500 BILGLADE RD","Fort Worth",TX,32.676946,-97.367466,1,range_interpolation,3500,"Bilglade Rd","Fort Worth",TX,"Tarrant County",76133,US
5319,"3500 BLOCK  BINYON ST","3500 BINYON ST","Fort Worth",TX,32.679142,-97.367513,1,range_interpolation,3500,"Binyon St","Fort Worth",TX,"Tarrant County",76133,US
5320,"3500 BLOCK  BLUEBONNET CIR","3500 BLUEBONNET CIR","Fort Worth",TX,32.698866,-97.36119,1,range_interpolation,3500,"Bluebonnet Cir","Fort Worth",TX,"Tarrant County",76109,US
5321,"3500 BLOCK  BONNIE DR","3500 BONNIE DR","Fort Worth",TX,32.721592,-97.446314,1,range_interpolation,3500,"Bonnie Dr","Fort Worth",TX,"Tarrant County",76116,US
5322,"3500 BLOCK  BRANDON LN","3500 BRANDON LN","Fort Worth",TX,32.722138,-97.463588,1,range_interpolation,3500,"Brandon Ln","Fort Worth",TX,"Tarrant County",76116,US
5323,"3500 BLOCK  BRIGHT ST","3500 BRIGHT ST","Fort Worth",TX,32.711595,-97.271646,1,range_interpolation,3500,"Bright St","Fort Worth",TX,"Tarrant County",76119,US
5324,"3500 BLOCK  BRYAN AVE","3500 BRYAN AVE","Fort Worth",TX,32.698475,-97.325054,1,range_interpolation,3500,"Bryan Ave","Fort Worth",TX,"Tarrant County",76110,US
5325,"3500 BLOCK  BURTON AVE","3500 BURTON AVE","Fort Worth",TX,32.714387,-97.275017,1,range_interpolation,3500,"Burton Ave","Fort Worth",TX,"Tarrant County",76105,US
5326,"3500 BLOCK  CANYON RIDGE AVE","3500 CANYON RIDGE AVE","Fort Worth",TX,32.739153,-97.274666,1,range_interpolation,3500,"Canyon Ridge Ave","Fort Worth",TX,"Tarrant County",76103,US
5327,"3500 BLOCK  CAROLINE CT","3500 CAROLINE CT","Fort Worth",TX,32.884267,-97.306844,1,range_interpolation,3500,"Caroline Ct","Fort Worth",TX,"Tarrant County",76137,US
5328,"3500 BLOCK  CHILDRESS ST","3500 CHILDRESS ST","Fort Worth",TX,32.701295,-97.273586,1,range_interpolation,3500,"Childress St","Fort Worth",TX,"Tarrant County",76119,US
5329,"3500 BLOCK  CINDY CT","3500 CINDY CT","Fort Worth",TX,32.807998,-97.292839,1,range_interpolation,3500,"Cindy Ct","Fort Worth",TX,"Tarrant County",76111,US
5330,"3500 BLOCK  CLARY AVE","3500 CLARY AVE","Fort Worth",TX,32.779825,-97.297253,1,range_interpolation,3500,"Clary Ave","Fort Worth",TX,"Tarrant County",76111,US
5331,"3500 BLOCK  CLEARBROOK DR","3500 CLEARBROOK DR","Fort Worth",TX,32.627005,-97.377175,0.8,street_center,,"Clear Brook Cir","Fort Worth",TX,"Tarrant County",76123,US
5332,"3500 BLOCK  CLINTON AVE","3500 CLINTON AVE","Fort Worth",TX,32.808171,-97.35449,1,range_interpolation,3500,"Clinton Ave","Fort Worth",TX,"Tarrant County",76106,US
5333,"3500 BLOCK  COLLEGE AVE","3500 COLLEGE AVE","Fort Worth",TX,32.698543,-97.335043,1,range_interpolation,3500,"College Ave","Fort Worth",TX,"Tarrant County",76110,US
5334,"3500 BLOCK  CONFIDENCE DR","3500 CONFIDENCE DR","Fort Worth",TX,32.95871,-97.283893,1,range_interpolation,3500,"Confidence Dr",Keller,TX,"Tarrant County",76244,US
5335,"3500 BLOCK  CORONADO CT","3500 CORONADO CT","Fort Worth",TX,32.720794,-97.470862,1,range_interpolation,3500,"Coronado Ct","Fort Worth",TX,"Tarrant County",76116,US
5336,"3500 BLOCK  COVERT AVE","3500 COVERT AVE","Fort Worth",TX,32.673296,-97.365566,1,range_interpolation,3500,"Covert Ave","Fort Worth",TX,"Tarrant County",76133,US
5337,"3500 BLOCK  CUTTER ST","3500 CUTTER ST","Fort Worth",TX,32.690966,-97.273265,1,range_interpolation,3500,"Cutter St","Fort Worth",TX,"Tarrant County",76119,US
5338,"3500 BLOCK  DECATUR AVE","3500 DECATUR AVE","Fort Worth",TX,32.806727,-97.339074,1,range_interpolation,3500,"Decatur Ave","Fort Worth",TX,"Tarrant County",76106,US
5339,"3500 BLOCK  DEEN RD","3500 DEEN RD","Fort Worth",TX,32.801396,-97.32578,0.8,street_center,,"Deen Rd","Fort Worth",TX,"Tarrant County",76106,US
5340,"3500 BLOCK  DONALEE ST","3500 DONALEE ST","Fort Worth",TX,32.711224,-97.267373,1,range_interpolation,3500,"Donalee St","Fort Worth",TX,"Tarrant County",76119,US
5341,"3500 BLOCK  EAST LOOP 820 SOUTH","3500 EAST LOOP 820 SOUTH","Fort Worth",TX,32.661681,-97.271237,1,range_interpolation,3500,"E Loop 820 S","Fort Worth",TX,"Tarrant County",76119,US
5342,"3500 BLOCK  EAST LOOP 820 SOUTH FWY","3500 EAST LOOP 820 SOUTH FREEWAY","Fort Worth",TX,32.661681,-97.271237,1,range_interpolation,3500,"E Loop 820 S","Fort Worth",TX,"Tarrant County",76119,US
5343,"3500 BLOCK  ELLIS AVE","3500 ELLIS AVE","Fort Worth",TX,32.808171,-97.352482,1,range_interpolation,3500,"Ellis Ave","Fort Worth",TX,"Tarrant County",76106,US
5344,"3500 BLOCK  FITZHUGH AVE","3500 FITZHUGH AVE","Fort Worth",TX,32.717106,-97.275,1,range_interpolation,3500,"Fitzhugh Ave","Fort Worth",TX,"Tarrant County",76105,US
5345,"3500 BLOCK  FORTNER WAY","3500 FORTNER WAY","Fort Worth",TX,32.722163,-97.461715,1,range_interpolation,3500,"Fortner Way","Fort Worth",TX,"Tarrant County",76116,US
5346,"3500 BLOCK  FOSSIL DR","3500 FOSSIL DR","Fort Worth",TX,32.803913,-97.298064,1,range_interpolation,3500,"Fossil Dr","Fort Worth",TX,"Tarrant County",76111,US
5347,"3500 BLOCK  FRAZIER CT","3500 FRAZIER CT","Fort Worth",TX,32.811394,-97.131135,1,range_interpolation,3500,"Frazier Ct",Euless,TX,"Tarrant County",76040,US
5348,"3500 BLOCK  GARRETT ST","3500 GARRETT ST","Fort Worth",TX,32.52757,-97.333901,0.8,street_center,,"Garrett St",Burleson,TX,"Johnson County",76028,US
5349,"3500 BLOCK  GLASS MOUNTAIN TRL","3500 GLASS MOUNTAIN TRL","Fort Worth",TX,32.771419,-97.291484,0.33,place,,,"Fort Worth",TX,"Tarrant County",76101,US
5350,"3500 BLOCK  GORDON AVE","3500 GORDON AVE","Fort Worth",TX,32.698506,-97.348225,1,range_interpolation,3500,"Gordon Ave","Fort Worth",TX,"Tarrant County",76110,US
5351,"3500 BLOCK  GRIGGS AVE","3500 GRIGGS AVE","Fort Worth",TX,32.711208,-97.259435,1,range_interpolation,3500,"Griggs Ave","Fort Worth",TX,"Tarrant County",76119,US
5352,"3500 BLOCK  HALF MOON DR","3500 HALF MOON DR","Fort Worth",TX,32.806794,-97.297576,1,range_interpolation,3500,"Half Moon Dr","Fort Worth",TX,"Tarrant County",76111,US
5353,"3500 BLOCK  HAMILTON AVE","3500 HAMILTON AVE","Fort Worth",TX,32.755002,-97.368068,1,range_interpolation,3500,"Hamilton Ave","Fort Worth",TX,"Tarrant County",76107,US
5354,"3500 BLOCK  HARDEMAN ST","3500 HARDEMAN ST","Fort Worth",TX,32.702536,-97.273598,1,range_interpolation,3500,"Hardeman St","Fort Worth",TX,"Tarrant County",76119,US
5355,"3500 BLOCK  HAZELINE RD","3500 HAZELINE RD","Fort Worth",TX,32.737614,-97.274751,1,range_interpolation,3500,"Hazeline Rd","Fort Worth",TX,"Tarrant County",76103,US
5356,"3500 BLOCK  HEDRICK ST","3500 HEDRICK ST","Fort Worth",TX,32.806845,-97.294739,1,range_interpolation,3500,"Hedrick St","Fort Worth",TX,"Tarrant County",76111,US
5357,"3500 BLOCK  HEMPHILL ST","3500 HEMPHILL ST","Fort Worth",TX,32.698545,-97.331688,1,range_interpolation,3500,"Hemphill St","Fort Worth",TX,"Tarrant County",76110,US
5358,"3500 BLOCK  HIGHWAY 157","3500 HIGHWAY","Fort Worth",TX,32.743094,-97.426847,0.33,place,,,"Fort Worth",TX,"Tarrant County",76116,US
5359,"3500 BLOCK  HILLS WEST CT","3500 HILLS WEST CT","Fort Worth",TX,32.725556,-97.390414,1,range_interpolation,3500,"Hills West Ct","Fort Worth",TX,"Tarrant County",76107,US
5360,"3500 BLOCK  HILLTOP RD","3500 HILLTOP RD","Fort Worth",TX,32.699337,-97.367179,1,range_interpolation,3500,"Hilltop Rd","Fort Worth",TX,"Tarrant County",76109,US
5361,"3500 BLOCK  HOUSE ANDERSON RD","3500 HOUSE ANDERSON RD","Fort Worth",TX,32.737418,-97.247689,0.8,street_center,,"House St","Fort Worth",TX,"Tarrant County",76103,US
5362,"3500 BLOCK  HULEN ST","3500 HULEN ST","Fort Worth",TX,32.726087,-97.387866,0.9,range_interpolation,3500,"S Hulen St","Fort Worth",TX,"Tarrant County",76107,US
5363,"3500 BLOCK  JAMES AVE","3500 JAMES AVE","Fort Worth",TX,32.6985,-97.344955,1,range_interpolation,3500,"James Ave","Fort Worth",TX,"Tarrant County",76110,US
5364,"3500 BLOCK  KELL ST","3500 KELL ST","Fort Worth",TX,32.698235,-97.367162,1,range_interpolation,3500,"Kell St","Fort Worth",TX,"Tarrant County",76109,US
5365,"3500 BLOCK  KELLER HICKS RD","3500 KELLER HICKS RD","Fort Worth",TX,32.942036,-97.322626,0.8,street_center,,"Keller Hicks Rd","Fort Worth",TX,"Tarrant County",76177,US
5366,"3500 BLOCK  KELVIN AVE","3500 KELVIN AVE","Fort Worth",TX,32.655909,-97.366036,1,range_interpolation,3500,"Kelvin Ave","Fort Worth",TX,"Tarrant County",76133,US
5367,"3500 BLOCK  LASSO RD","3500 LASSO RD","Fort Worth",TX,32.65554,-97.171622,0.8,street_center,,"Lacy Ct",Arlington,TX,"Tarrant County",76017,US
5368,"3500 BLOCK  LAUGHTON ST","3500 LAUGHTON ST","Fort Worth",TX,32.698534,-97.335968,1,range_interpolation,3500,"Laughton St","Fort Worth",TX,"Tarrant County",76110,US
5369,"3500 BLOCK  LEITH AVE","3500 LEITH AVE","Fort Worth",TX,32.672477,-97.36519,1,range_interpolation,3500,"Leith Ave","Fort Worth",TX,"Tarrant County",76133,US
5370,"3500 BLOCK  LENOX DR","3500 LENOX DR","Fort Worth",TX,32.756822,-97.368836,1,range_interpolation,3500,"Lenox Dr","Fort Worth",TX,"Tarrant County",76107,US
5371,"3500 BLOCK  LIPSCOMB ST","3500 LIPSCOMB ST","Fort Worth",TX,32.698553,-97.334162,1,range_interpolation,3500,"Lipscomb St","Fort Worth",TX,"Tarrant County",76110,US
5372,"3500 BLOCK  LITTLEPAGE ST","3500 LITTLEPAGE ST","Fort Worth",TX,32.726314,-97.411617,1,range_interpolation,3500,"Littlepage St","Fort Worth",TX,"Tarrant County",76107,US
5373,"3500 BLOCK  LIVINGSTON AVE","3500 LIVINGSTON AVE","Fort Worth",TX,32.698509,-97.347044,1,range_interpolation,3500,"Livingston Ave","Fort Worth",TX,"Tarrant County",76110,US
5374,"3500 BLOCK  LONE STAR CIR","3500 LONE STAR CIR","Fort Worth",TX,33.037888,-97.277222,1,range_interpolation,3500,"Lone Star Cir","Fort Worth",TX,"Denton County",76177,US
5375,"3500 BLOCK  LULU ST","3500 LULU ST","Fort Worth",TX,32.807099,-97.333428,1,range_interpolation,3500,"Lulu St","Fort Worth",TX,"Tarrant County",76106,US
5376,"3500 BLOCK  MACIE AVE","3500 MACIE AVE","Fort Worth",TX,32.806024,-97.373688,0.8,range_interpolation,3500,"Macie Ave","Fort Worth",TX,"Tarrant County",76106,US
5377,"3500 BLOCK  MARQUITA DR","3500 MARQUITA DR","Fort Worth",TX,32.72129,-97.443625,1,range_interpolation,3500,"Marquita Dr","Fort Worth",TX,"Tarrant County",76116,US
5378,"3500 BLOCK  MARTIN LYDON AVE","3500 MARTIN LYDON AVE","Fort Worth",TX,32.675684,-97.366532,1,range_interpolation,3500,"Martin Lydon Ave","Fort Worth",TX,"Tarrant County",76133,US
5379,"3500 BLOCK  MAY ST","3500 MAY ST","Fort Worth",TX,32.698489,-97.328055,1,range_interpolation,3500,"May St","Fort Worth",TX,"Tarrant County",76110,US
5380,"3500 BLOCK  MEADOWBROOK DR","3500 MEADOWBROOK DR","Fort Worth",TX,32.743811,-97.274513,1,range_interpolation,3500,"Meadowbrook Dr","Fort Worth",TX,"Tarrant County",76103,US
5381,"3500 BLOCK  MESQUITE RD","3500 MESQUITE RD","Fort Worth",TX,32.808314,-97.292143,1,range_interpolation,3500,"Mesquite Rd","Fort Worth",TX,"Tarrant County",76111,US
5382,"3500 BLOCK  MILLER AVE","3500 MILLER AVE","Fort Worth",TX,32.712569,-97.263021,1,range_interpolation,3500,"Miller Ave","Fort Worth",TX,"Tarrant County",76119,US
5383,"3500 BLOCK  MILLET AVE","3500 MILLET AVE","Fort Worth",TX,32.722478,-97.274959,1,range_interpolation,3500,"Millet Ave","Fort Worth",TX,"Tarrant County",76105,US
5384,"3500 BLOCK  MINOT AVE","3500 MINOT AVE","Fort Worth",TX,32.658861,-97.367122,1,range_interpolation,3500,"Minot Ave","Fort Worth",TX,"Tarrant County",76133,US
5385,"3500 BLOCK  MOBERLY ST","3500 MOBERLY ST","Fort Worth",TX,32.689875,-97.272798,1,range_interpolation,3500,"Moberly St","Fort Worth",TX,"Tarrant County",76119,US
5386,"3500 BLOCK  MONTAGUE ST","3500 MONTAGUE ST","Fort Worth",TX,32.704988,-97.273602,1,range_interpolation,3500,"Montague St","Fort Worth",TX,"Tarrant County",76119,US
5387,"3500 BLOCK  MOUNTCASTLE DR","3500 MOUNTCASTLE DR","Fort Worth",TX,32.7101,-97.252328,1,range_interpolation,3500,"Mountcastle Dr","Fort Worth",TX,"Tarrant County",76119,US
5388,"3500 BLOCK  NEW YORK AVE","3500 NEW YORK AVE","Fort Worth",TX,32.698467,-97.316544,1,range_interpolation,3500,"New York Ave","Fort Worth",TX,"Tarrant County",76110,US
5389,"3500 BLOCK  NOBLE AVE","3500 NOBLE AVE","Fort Worth",TX,32.769395,-97.298352,1,range_interpolation,3500,"Noble Ave","Fort Worth",TX,"Tarrant County",76111,US
5390,"3500 BLOCK  NORTHEAST LOOP 820 FWY","3500 NORTHEAST LOOP 820 FREEWAY","Fort Worth",TX,32.818618,-97.401504,0.7,range_interpolation,3500,"Marine Lke Tributary","Fort Worth",TX,"Tarrant County",76106,US
5391,"3500 BLOCK  NORTHEAST LOOP 820 S","3500 NORTHEAST LOOP 820 S","Fort Worth",TX,32.818618,-97.401504,0.7,range_interpolation,3500,"Marine Lke Tributary","Fort Worth",TX,"Tarrant County",76106,US
5392,"3500 BLOCK  NORTHWEST CENTRE DR","3500 NORTHWEST CENTRE DR","Fort Worth",TX,32.750215,-97.106827,0.8,street_center,,"N Center St",Arlington,TX,"Tarrant County",76011,US
5393,"3500 BLOCK  PAINT TRL","3500 PAINT TRL","Fort Worth",TX,32.720557,-97.468235,1,range_interpolation,3500,"Paint Trl","Fort Worth",TX,"Tarrant County",76116,US
5394,"3500 BLOCK  PANOLA AVE","3500 PANOLA AVE","Fort Worth",TX,32.73855,-97.274732,1,range_interpolation,3500,"Panola Ave","Fort Worth",TX,"Tarrant County",76103,US
5395,"3500 BLOCK  PARK HOLLOW","3500 PARK HOLLOW","Fort Worth",TX,32.698729,-97.384949,1,range_interpolation,3500,"Park Hollow St","Fort Worth",TX,"Tarrant County",76109,US
5396,"3500 BLOCK  PECOS ST","3500 PECOS ST","Fort Worth",TX,32.687952,-97.274773,1,range_interpolation,3500,"Pecos St","Fort Worth",TX,"Tarrant County",76119,US
5397,"3500 BLOCK  PERMIAN LN","3500 PERMIAN LN","Fort Worth",TX,32.866727,-97.305748,0.8,street_center,,"Permian Ln","Fort Worth",TX,"Tarrant County",76137,US
5398,"3500 BLOCK  PINTO TRL","3500 PINTO TRL","Fort Worth",TX,32.721255,-97.467327,1,range_interpolation,3500,"Pinto Trl","Fort Worth",TX,"Tarrant County",76116,US
5399,"3500 BLOCK  PLYMOUTH AVE","3500 PLYMOUTH AVE","Fort Worth",TX,32.692356,-97.368191,1,range_interpolation,3500,"Plymouth Ave","Fort Worth",TX,"Tarrant County",76109,US
5400,"3500 BLOCK  PRIMROSE AVE","3500 PRIMROSE AVE","Fort Worth",TX,32.781773,-97.297473,1,range_interpolation,3500,"Primrose Ave","Fort Worth",TX,"Tarrant County",76111,US
5401,"3500 BLOCK  RAIDER DR","3500 RAIDER DR","Fort Worth",TX,32.813204,-97.134576,1,range_interpolation,3500,"Raider Dr",Euless,TX,"Tarrant County",76040,US
5402,"3500 BLOCK  REAGAN DR","3500 REAGAN DR","Fort Worth",TX,32.721984,-97.447836,1,range_interpolation,3500,"Reagan Dr","Fort Worth",TX,"Tarrant County",76116,US
5403,"3500 BLOCK  REED ST","3500 REED ST","Fort Worth",TX,32.710262,-97.274216,1,range_interpolation,3500,"Reed St","Fort Worth",TX,"Tarrant County",76119,US
5404,"3500 BLOCK  REGAL RD","3500 REGAL RD","Fort Worth",TX,32.807594,-97.296855,1,range_interpolation,3500,"Regal Rd","Fort Worth",TX,"Tarrant County",76111,US
5405,"3500 BLOCK  RICHARDSON CT","3500 RICHARDSON CT","Fort Worth",TX,32.712023,-97.232531,1,range_interpolation,3500,"Richardson Ct","Fort Worth",TX,"Tarrant County",76119,US
5406,"3500 BLOCK  ROCK ISLAND ST","3500 ROCK ISLAND ST","Fort Worth",TX,32.810243,-97.377851,1,range_interpolation,3500,"Rock Island St","Fort Worth",TX,"Tarrant County",76106,US
5407,"3500 BLOCK  ROGERS AVE","3500 ROGERS AVE","Fort Worth",TX,32.698874,-97.361604,1,range_interpolation,3500,"Rogers Ave","Fort Worth",TX,"Tarrant County",76109,US
5408,"3500 BLOCK  ROYAL CREST DR","3500 ROYAL CREST DR","Fort Worth",TX,32.639267,-97.268659,1,range_interpolation,3500,"Royal Crest Dr","Fort Worth",TX,"Tarrant County",76140,US
5409,"3500 BLOCK  RUFUS ST","3500 RUFUS ST","Fort Worth",TX,32.711447,-97.268526,1,range_interpolation,3500,"Rufus St","Fort Worth",TX,"Tarrant County",76119,US
5410,"3500 BLOCK  RYAN AVE","3500 RYAN AVE","Fort Worth",TX,32.698511,-97.342582,1,range_interpolation,3500,"Ryan Ave","Fort Worth",TX,"Tarrant County",76110,US
5411,"3500 BLOCK  SAGECREST TER","3500 SAGECREST TER","Fort Worth",TX,32.697642,-97.385978,1,range_interpolation,3500,"Sagecrest Ter","Fort Worth",TX,"Tarrant County",76109,US
5412,"3500 BLOCK  SANDGATE ST","3500 SANDGATE ST","Fort Worth",TX,32.709783,-97.292588,1,range_interpolation,3500,"Sandgate St","Fort Worth",TX,"Tarrant County",76105,US
5413,"3500 BLOCK  SANSOM PARK DR","3500 SANSOM PARK DR","Fort Worth",TX,32.809292,-97.374696,1,range_interpolation,3500,"Sansom Park Dr","Fort Worth",TX,"Tarrant County",76106,US
5414,"3500 BLOCK  SCHWARTZ AVE","3500 SCHWARTZ AVE","Fort Worth",TX,32.80709,-97.332416,1,range_interpolation,3500,"Schwartz Ave","Fort Worth",TX,"Tarrant County",76106,US
5415,"3500 BLOCK  SELK AVE","3500 SELK AVE","Fort Worth",TX,32.793458,-97.295527,1,range_interpolation,3500,"Selk Ave","Fort Worth",TX,"Tarrant County",76111,US
5416,"3500 BLOCK  SOUTH DR","3500 SOUTH DR","Fort Worth",TX,32.687207,-97.368218,1,range_interpolation,3500,"South Dr","Fort Worth",TX,"Tarrant County",76109,US
5417,"3500 BLOCK  SOUTH FWY SR NB","3500 SOUTH FREEWAY SERVICE ROAD","Fort Worth",TX,32.698455,-97.320893,1,range_interpolation,3500,"South Fwy","Fort Worth",TX,"Tarrant County",76110,US
5418,"3500 BLOCK  SOUTH FWY SR SB","3500 SOUTH FREEWAY SERVICE ROAD","Fort Worth",TX,32.698455,-97.320893,1,range_interpolation,3500,"South Fwy","Fort Worth",TX,"Tarrant County",76110,US
5419,"3500 BLOCK  SOUTH HILLS AVE","3500 SOUTH HILLS AVE","Fort Worth",TX,32.696241,-97.367143,1,range_interpolation,3500,"S Hills Ave","Fort Worth",TX,"Tarrant County",76109,US
5420,"3500 BLOCK  SOUTHWEST LOOP 820 FWY","3500 SOUTHWEST LOOP 820 FREEWAY","Fort Worth",TX,32.670892,-97.365431,1,range_interpolation,3500,"SW Loop 820","Fort Worth",TX,"Tarrant County",76133,US
5421,"3500 BLOCK  SPRINGDALE RD","3500 SPRINGDALE RD","Fort Worth",TX,32.787888,-97.296724,1,range_interpolation,3500,"Springdale Rd","Fort Worth",TX,"Tarrant County",76111,US
5422,"3500 BLOCK  STADIUM DR","3500 STADIUM DR","Fort Worth",TX,32.698211,-97.365063,1,range_interpolation,3500,"Stadium Dr","Fort Worth",TX,"Tarrant County",76109,US
5423,"3500 BLOCK  STANLEY AVE","3500 STANLEY AVE","Fort Worth",TX,32.698508,-97.345964,1,range_interpolation,3500,"Stanley Ave","Fort Worth",TX,"Tarrant County",76110,US
5424,"3500 BLOCK  STONE CREEK CT","3500 STONE CREEK CT","Fort Worth",TX,32.858748,-97.305225,1,range_interpolation,3500,"Stone Creek Ct","Fort Worth",TX,"Tarrant County",76137,US
5425,"3500 BLOCK  STRONG AVE","3500 STRONG AVE","Fort Worth",TX,32.716174,-97.275,1,range_interpolation,3500,"Strong Ave","Fort Worth",TX,"Tarrant County",76105,US
5426,"3500 BLOCK  STUART DR","3500 STUART DR","Fort Worth",TX,32.698475,-97.324052,1,range_interpolation,3500,"Stuart Dr","Fort Worth",TX,"Tarrant County",76110,US
5427,"3500 BLOCK  SUNSET HILLS DR","3500 SUNSET HILLS DR","Fort Worth",TX,32.75531,-97.397101,1,range_interpolation,3500,"Sunset Ln","Fort Worth",TX,"Tarrant County",76114,US
5428,"3500 BLOCK  SYCAMORE SCHOOL RD","3500 SYCAMORE SCHOOL RD","Fort Worth",TX,32.634983,-97.370296,1,range_interpolation,3500,"Sycamore School Rd","Fort Worth",TX,"Tarrant County",76133,US
5429,"3500 BLOCK  SYDNEY ST","3500 SYDNEY ST","Fort Worth",TX,32.711212,-97.270172,1,range_interpolation,3500,"Sydney St","Fort Worth",TX,"Tarrant County",76119,US
5430,"3500 BLOCK  TANACROSS DR","3500 TANACROSS DR","Fort Worth",TX,32.837519,-97.297209,0.8,street_center,,"Tanacross Dr","Fort Worth",TX,"Tarrant County",76137,US
5431,"3500 BLOCK  TARRANT MAIN ST","3500 TARRANT MAIN ST","Fort Worth",TX,32.713889,-97.274997,1,range_interpolation,3500,"Tarrant Rd","Fort Worth",TX,"Tarrant County",76105,US
5432,"3500 BLOCK  TERRA CT","3500 TERRA CT","Fort Worth",TX,32.807524,-97.326439,1,range_interpolation,3500,"Terra Ct","Fort Worth",TX,"Tarrant County",76106,US
5433,"3500 BLOCK  TERRA TRL","3500 TERRA TRL","Fort Worth",TX,32.805809,-97.327708,1,range_interpolation,3500,"Terra Trl","Fort Worth",TX,"Tarrant County",76106,US
5434,"3500 BLOCK  TEXAS STAR DR","3500 TEXAS STAR DR","Fort Worth",TX,32.749078,-97.336536,0.8,street_center,,"Texas St","Fort Worth",TX,"Tarrant County",76102,US
5435,"3500 BLOCK  THANNISCH AVE","3500 THANNISCH AVE","Fort Worth",TX,32.715271,-97.275014,1,range_interpolation,3500,"Thannisch Ave","Fort Worth",TX,"Tarrant County",76105,US
5436,"3500 BLOCK  TOWNSEND DR","3500 TOWNSEND DR","Fort Worth",TX,32.698486,-97.349403,1,range_interpolation,3500,"Townsend Dr","Fort Worth",TX,"Tarrant County",76110,US
5437,"3500 BLOCK  TRAVIS AVE","3500 TRAVIS AVE","Fort Worth",TX,32.698534,-97.332959,1,range_interpolation,3500,"Travis Ave","Fort Worth",TX,"Tarrant County",76110,US
5438,"3500 BLOCK  TRINITY PARK DR","3500 TRINITY PARK DR","Fort Worth",TX,32.746955,-97.35242,0.8,street_center,,"Trinity Park Dr","Fort Worth",TX,"Tarrant County",76107,US
5439,"3500 BLOCK  TWIN PINES DR","3500 TWIN PINES DR","Fort Worth",TX,32.757682,-97.40659,0.8,street_center,,"Twin Ln","Fort Worth",TX,"Tarrant County",76114,US
5440,"3500 BLOCK  VARDEN ST","3500 VARDEN ST","Fort Worth",TX,32.919801,-97.304546,1,range_interpolation,3500,"Varden St",Keller,TX,"Tarrant County",76244,US
5441,"3500 BLOCK  VIEW ST","3500 VIEW ST","Fort Worth",TX,32.745021,-97.274492,1,range_interpolation,3500,"View St","Fort Worth",TX,"Tarrant County",76103,US
5442,"3500 BLOCK  VILLAGE CREEK RD","3500 VILLAGE CREEK RD","Fort Worth",TX,32.712043,-97.248624,1,range_interpolation,3500,"Village Creek Rd","Fort Worth",TX,"Tarrant County",76119,US
5443,"3500 BLOCK  VINETTA DR","3500 VINETTA DR","Fort Worth",TX,32.69239,-97.27548,0.8,street_center,,"Vinetta Dr","Fort Worth",TX,"Tarrant County",76119,US
5444,"3500 BLOCK  WALDORF ST","3500 WALDORF ST","Fort Worth",TX,32.71284,-97.236224,1,range_interpolation,3500,"Waldorf St","Fort Worth",TX,"Tarrant County",76119,US
5445,"3500 BLOCK  WALTON AVE","3500 WALTON AVE","Fort Worth",TX,32.66275,-97.366535,1,range_interpolation,3500,"Walton Ave","Fort Worth",TX,"Tarrant County",76133,US
5446,"3500 BLOCK  WEDGWAY DR","3500 WEDGWAY DR","Fort Worth",TX,32.667833,-97.36573,1,range_interpolation,3500,"Wedgway Dr","Fort Worth",TX,"Tarrant County",76133,US
5447,"3500 BLOCK  WEST FWY SR WB","3500 WEST FREEWAY SERVICE ROAD","Fort Worth",TX,32.733054,-97.380445,0.8,street_center,,"West Fwy","Fort Worth",TX,"Tarrant County",76107,US
5448,"3500 BLOCK  WEST LOOP 820 SOUTH","3500 WEST LOOP 820 SOUTH","Fort Worth",TX,32.718377,-97.480178,1,range_interpolation,3500,"W Loop 820 S","Fort Worth",TX,"Tarrant County",76116,US
5449,"3500 BLOCK  WEST LOOP 820 SOUTH FWY","3500 WEST LOOP 820 SOUTH FREEWAY","Fort Worth",TX,32.718377,-97.480178,1,range_interpolation,3500,"W Loop 820 S","Fort Worth",TX,"Tarrant County",76116,US
5450,"3500 BLOCK  WESTERLY RD","3500 WESTERLY RD","Fort Worth",TX,32.720524,-97.457231,1,range_interpolation,3500,"Westerly Rd","Fort Worth",TX,"Tarrant County",76116,US
5451,"3500 BLOCK  WESTERN AVE","3500 WESTERN AVE","Fort Worth",TX,32.726325,-97.385672,1,range_interpolation,3500,"Western Ave","Fort Worth",TX,"Tarrant County",76107,US
5452,"3500 BLOCK  WESTFIELD AVE","3500 WESTFIELD AVE","Fort Worth",TX,32.671746,-97.364927,1,range_interpolation,3500,"Westfield Ave","Fort Worth",TX,"Tarrant County",76133,US
5453,"3500 BLOCK  WESTLAND AVE","3500 WESTLAND AVE","Fort Worth",TX,32.722447,-97.498951,1,range_interpolation,3500,"Westland Ave","Fort Worth",TX,"Tarrant County",76116,US
5454,"3500 BLOCK  WICHITA ST","3500 WICHITA ST","Fort Worth",TX,32.71157,-97.277253,1,range_interpolation,3500,"Wichita St","Fort Worth",TX,"Tarrant County",76119,US
5455,"3500 BLOCK  WILBARGER ST","3500 WILBARGER ST","Fort Worth",TX,32.700066,-97.273146,1,range_interpolation,3500,"Wilbarger St","Fort Worth",TX,"Tarrant County",76119,US
5456,"3500 BLOCK  WILLIAMS RD","3500 WILLIAMS RD","Fort Worth",TX,32.7219,-97.451281,1,range_interpolation,3500,"Williams Rd","Fort Worth",TX,"Tarrant County",76116,US
5457,"3500 BLOCK  WILLING AVE","3500 WILLING AVE","Fort Worth",TX,32.69852,-97.341448,1,range_interpolation,3500,"Willing Ave","Fort Worth",TX,"Tarrant County",76110,US
5458,"3500 BLOCK  WINDWARD DR","3500 WINDWARD DR","Fort Worth",TX,32.67227,-97.395663,0.8,street_center,,"Wentworth St","Fort Worth",TX,"Tarrant County",76132,US
5459,"3500 BLOCK  WINDWAY DR","3500 WINDWAY DR","Fort Worth",TX,32.72058,-97.477547,1,range_interpolation,3500,"Windway Dr","Fort Worth",TX,"Tarrant County",76116,US
5460,"3500 BLOCK  WINIFRED DR","3500 WINIFRED DR","Fort Worth",TX,32.66532,-97.366473,1,range_interpolation,3500,"Winifred Dr","Fort Worth",TX,"Tarrant County",76133,US
5461,"3500 BLOCK  WINSTON RD","3500 WINSTON RD","Fort Worth",TX,32.698224,-97.366082,1,range_interpolation,3500,"Winston Rd","Fort Worth",TX,"Tarrant County",76109,US
5462,"3500 BLOCK  WOOTEN DR","3500 WOOTEN DR","Fort Worth",TX,32.668399,-97.36625,1,range_interpolation,3500,"Wooten Dr","Fort Worth",TX,"Tarrant County",76133,US
5463,"3500 BLOCK  WREN AVE","3500 WREN AVE","Fort Worth",TX,32.663609,-97.366461,1,range_interpolation,3500,"Wren Ave","Fort Worth",TX,"Tarrant County",76133,US
5464,"3500 BLOCK  YUCCA AVE","3500 YUCCA AVE","Fort Worth",TX,32.780793,-97.296935,1,range_interpolation,3500,"Yucca Ave","Fort Worth",TX,"Tarrant County",76111,US
5465,"3500 BLOCK D ALTAMESA BL","3500 ALTAMESA BL","Fort Worth",TX,32.649475,-97.367684,1,range_interpolation,3500,"Altamesa Blvd","Fort Worth",TX,"Tarrant County",76133,US
5466,"3500 BLOCK D BASSWOOD BL","3500 BASSWOOD BL","Fort Worth",TX,32.826788,-97.423246,0.8,street_center,,"Basswood Dr","Fort Worth",TX,"Tarrant County",76135,US
5467,"3500 BLOCK D CAMP BOWIE BL","3500 CAMP BOWIE BL","Fort Worth",TX,32.734218,-97.402507,0.8,street_center,,"Camp Bowie Blvd","Fort Worth",TX,"Tarrant County",76107,US
5468,"3500 BLOCK D CHAPEL CREEK BL","3500 CHAPEL CREEK BL","Fort Worth",TX,32.751911,-97.506642,0.8,street_center,,"Chapel Creek Blvd","Fort Worth",TX,"Tarrant County",76108,US
5469,"3500 BLOCK D FOSSIL CREEK BL","3500 FOSSIL CREEK BL","Fort Worth",TX,32.847549,-97.310276,1,range_interpolation,3500,"Fossil Creek Blvd","Fort Worth",TX,"Tarrant County",76137,US
5470,"3500 BLOCK D GOLDEN TRIANGLE BL","3500 GOLDEN TRIANGLE BL","Fort Worth",TX,32.92272,-97.320463,0.8,street_center,,"Golden Triangle Dr","Fort Worth",TX,"Tarrant County",76177,US
5471,"3500 BLOCK D HAMPSHIRE BL","3500 HAMPSHIRE BL","Fort Worth",TX,32.736637,-97.274774,1,range_interpolation,3500,"Hampshire Blvd","Fort Worth",TX,"Tarrant County",76103,US
5472,"3500 BLOCK D PARK RIDGE BL","3500 PARK RIDGE BL","Fort Worth",TX,32.871347,-97.495683,0.8,street_center,,"Park Rd","Fort Worth",TX,"Tarrant County",76135,US
5473,"3500 BLOCK D POST OAK BL","3500 POST OAK BL","Fort Worth",TX,32.839652,-97.490144,0.8,street_center,,"Post Oak Ct","Fort Worth",TX,"Tarrant County",76135,US
5474,"3500 BLOCK D RENZEL BL","3500 RENZEL BL","Fort Worth",TX,32.720871,-97.475097,1,range_interpolation,3500,"Renzel Blvd","Fort Worth",TX,"Tarrant County",76116,US
5475,"3500 BLOCK D RIVER BEND BL","3500 RIVER BEND BL","Fort Worth",TX,32.6777,-97.423787,0.8,street_center,,"River Bend Rd","Fort Worth",TX,"Tarrant County",76132,US
5476,"3500 BLOCK D SLADE BL","3500 SLADE BL","Fort Worth",TX,32.722072,-97.459423,1,range_interpolation,3500,"Slade Blvd","Fort Worth",TX,"Tarrant County",76116,US
5477,"3500 BLOCK D VAUGHN BL","3500 VAUGHN BL","Fort Worth",TX,32.711305,-97.2788,1,range_interpolation,3500,"Vaughn Blvd","Fort Worth",TX,"Tarrant County",76119,US
5478,"3500 BLOCK D VICKERY BL","3500 VICKERY BL","Fort Worth",TX,32.733842,-97.274913,1,range_interpolation,3500,"E Vickery Blvd","Fort Worth",TX,"Tarrant County",76105,US
5479,"3500 BLOCK D WESTERN CENTER BL","3500 WESTERN CENTER BL","Fort Worth",TX,32.86085,-97.264597,0.8,street_center,,"Western Center Blvd","Fort Worth",TX,"Tarrant County",76148,US
5480,"3500 BLOCK IH 820 EB ENTER SH 199","3500 INTERSTATE 820 ENTER SH","Fort Worth",TX,32.661681,-97.271237,0.9,range_interpolation,3500,"E California Pkwy","Fort Worth",TX,"Tarrant County",76119,US
5481,"3500 BLOCK S RIVERSIDE DR APT","3500 S RIVERSIDE DR APT","Fort Worth",TX,32.702465,-97.304905,1,range_interpolation,3500,"S Riverside Dr","Fort Worth",TX,"Tarrant County",76119,US
5482,"3500 BLOCK Y HERITAGE TRACE PK","3500 HERITAGE TRACE PK","Fort Worth",TX,32.91546,-97.297562,0.8,street_center,,"Heritage Trace Pkwy",Keller,TX,"Tarrant County",76244,US
5483,"3500 BLOCK Y TARRANT PK","3500 TARRANT PK","Fort Worth",TX,32.713889,-97.274997,1,range_interpolation,3500,"Tarrant Rd","Fort Worth",TX,"Tarrant County",76105,US
5484,"3600 BLOCK  5TH AVE","3600 5TH AVE","Fort Worth",TX,32.696739,-97.339447,1,range_interpolation,3600,"5th Ave","Fort Worth",TX,"Tarrant County",76110,US
5485,"3600 BLOCK  6TH AVE","3600 6TH AVE","Fort Worth",TX,32.696721,-97.340308,1,range_interpolation,3600,"6th Ave","Fort Worth",TX,"Tarrant County",76110,US
5486,"3600 BLOCK  ADA AVE","3600 ADA AVE","Fort Worth",TX,32.721592,-97.272985,1,range_interpolation,3600,"Ada Ave","Fort Worth",TX,"Tarrant County",76105,US
5487,"3600 BLOCK  AIRPORT FWY","3600 AIRPORT FREEWAY","Fort Worth",TX,32.770254,-97.296501,1,range_interpolation,3600,"Airport Fwy","Fort Worth",TX,"Tarrant County",76111,US
5488,"3600 BLOCK  ALGERITA ST","3600 ALGERITA ST","Fort Worth",TX,32.682833,-97.271586,1,range_interpolation,3600,"Algerita St","Fort Worth",TX,"Tarrant County",76119,US
5489,"3600 BLOCK  ALICE ST","3600 ALICE ST","Fort Worth",TX,32.696814,-97.329083,1,range_interpolation,3600,"Alice St","Fort Worth",TX,"Tarrant County",76110,US
5490,"3600 BLOCK  ANGLE AVE","3600 ANGLE AVE","Fort Worth",TX,32.808923,-97.369211,1,range_interpolation,3600,"Angle Ave","Fort Worth",TX,"Tarrant County",76106,US
5491,"3600 BLOCK  AVE G","3600 AVE G","Fort Worth",TX,32.771419,-97.291484,1,place,,,"Fort Worth",TX,"Tarrant County",76101,US
5492,"3600 BLOCK  AVE H","3600 AVE H","Fort Worth",TX,32.771419,-97.291484,1,place,,,"Fort Worth",TX,"Tarrant County",76101,US
5493,"3600 BLOCK  AVE I","3600 AVE I","Fort Worth",TX,32.771419,-97.291484,1,place,,,"Fort Worth",TX,"Tarrant County",76101,US
5494,"3600 BLOCK  AVE J","3600 AVE J","Fort Worth",TX,32.771419,-97.291484,1,place,,,"Fort Worth",TX,"Tarrant County",76101,US
5495,"3600 BLOCK  AVE K","3600 AVE K","Fort Worth",TX,32.771419,-97.291484,1,place,,,"Fort Worth",TX,"Tarrant County",76101,US
5496,"3600 BLOCK  AVE L","3600 AVE L","Fort Worth",TX,32.771419,-97.291484,1,place,,,"Fort Worth",TX,"Tarrant County",76101,US
5497,"3600 BLOCK  AVE M","3600 AVE M","Fort Worth",TX,32.771419,-97.291484,1,place,,,"Fort Worth",TX,"Tarrant County",76101,US
5498,"3600 BLOCK  AVE N","3600 AVE N","Fort Worth",TX,32.771419,-97.291484,1,place,,,"Fort Worth",TX,"Tarrant County",76101,US
5499,"3600 BLOCK  BALDWIN ST","3600 BALDWIN ST","Fort Worth",TX,32.686286,-97.33826,0.8,street_center,,"Baldwin Ave","Fort Worth",TX,"Tarrant County",76115,US
5500,"3600 BLOCK  BAYLOR ST","3600 BAYLOR ST","Fort Worth",TX,32.703771,-97.271448,1,range_interpolation,3600,"Baylor St","Fort Worth",TX,"Tarrant County",76119,US
5501,"3600 BLOCK  BILGLADE RD","3600 BILGLADE RD","Fort Worth",TX,32.676391,-97.370257,1,range_interpolation,3600,"Bilglade Rd","Fort Worth",TX,"Tarrant County",76133,US
5502,"3600 BLOCK  BLACK RANCH CT","3600 BLACK RANCH CT","Fort Worth",TX,32.882309,-97.2851,0.8,street_center,,"Blake Dr","Fort Worth",TX,"Tarrant County",76137,US
5503,"3600 BLOCK  BLUE SPRINGS DR","3600 BLUE SPRINGS DR","Fort Worth",TX,32.621531,-97.372563,1,range_interpolation,3600,"Blue Springs Dr","Fort Worth",TX,"Tarrant County",76123,US
5504,"3600 BLOCK  BLUE SPRUCE DR","3600 BLUE SPRUCE DR","Fort Worth",TX,32.858301,-97.280178,0.8,street_center,,"Blue Spruce Cir","Fort Worth",TX,"Tarrant County",76137,US
5505,"3600 BLOCK  BONNIE DR","3600 BONNIE DR","Fort Worth",TX,32.719461,-97.44637,1,range_interpolation,3600,"Bonnie Dr","Fort Worth",TX,"Tarrant County",76116,US
5506,"3600 BLOCK  BRETT DR","3600 BRETT DR","Fort Worth",TX,32.62416,-97.37476,1,range_interpolation,3600,"Brett Dr","Fort Worth",TX,"Tarrant County",76123,US
5507,"3600 BLOCK  BRIARHAVEN RD","3600 BRIARHAVEN RD","Fort Worth",TX,32.690115,-97.387422,0.8,street_center,,"Briarhaven Rd","Fort Worth",TX,"Tarrant County",76109,US
5508,"3600 BLOCK  BRIGHT ST","3600 BRIGHT ST","Fort Worth",TX,32.710267,-97.270952,1,range_interpolation,3600,"Bright St","Fort Worth",TX,"Tarrant County",76119,US
5509,"3600 BLOCK  BRYAN AVE","3600 BRYAN AVE","Fort Worth",TX,32.696801,-97.325036,1,range_interpolation,3600,"Bryan Ave","Fort Worth",TX,"Tarrant County",76110,US
5510,"3600 BLOCK  BRYCE AVE","3600 BRYCE AVE","Fort Worth",TX,32.739637,-97.370032,1,range_interpolation,3600,"Bryce Ave","Fort Worth",TX,"Tarrant County",76107,US
5511,"3600 BLOCK  BURTS DR","3600 BURTS DR","Fort Worth",TX,32.912742,-97.304915,1,range_interpolation,3600,"Burts Dr",Keller,TX,"Tarrant County",76244,US
5512,"3600 BLOCK  BYERS AVE","3600 BYERS AVE","Fort Worth",TX,32.738542,-97.370024,1,range_interpolation,3600,"Byers Ave","Fort Worth",TX,"Tarrant County",76107,US
5513,"3600 BLOCK  CANYON RIDGE AVE","3600 CANYON RIDGE AVE","Fort Worth",TX,32.73951,-97.272867,1,range_interpolation,3600,"Canyon Ridge Ave","Fort Worth",TX,"Tarrant County",76103,US
5514,"3600 BLOCK  CHENAULT ST","3600 CHENAULT ST","Fort Worth",TX,32.764085,-97.296977,1,range_interpolation,3600,"Chenault St","Fort Worth",TX,"Tarrant County",76111,US
5515,"3600 BLOCK  CHICORA CT","3600 CHICORA CT","Fort Worth",TX,32.725601,-97.414844,1,range_interpolation,3600,"Chicora Ct","Fort Worth",TX,"Tarrant County",76116,US
5516,"3600 BLOCK  CHILDRESS ST","3600 CHILDRESS ST","Fort Worth",TX,32.701678,-97.271457,1,range_interpolation,3600,"Childress St","Fort Worth",TX,"Tarrant County",76119,US
5517,"3600 BLOCK  CINDY DR","3600 CINDY DR","Fort Worth",TX,32.806922,-97.293095,1,range_interpolation,3600,"Cindy Dr","Fort Worth",TX,"Tarrant County",76111,US
5518,"3600 BLOCK  CLARY AVE","3600 CLARY AVE","Fort Worth",TX,32.779826,-97.296326,1,range_interpolation,3600,"Clary Ave","Fort Worth",TX,"Tarrant County",76111,US
5519,"3600 BLOCK  COLLIN ST","3600 COLLIN ST","Fort Worth",TX,32.698526,-97.271452,1,range_interpolation,3600,"Collin St","Fort Worth",TX,"Tarrant County",76119,US
5520,"3600 BLOCK  COLLINWOOD AVE","3600 COLLINWOOD AVE","Fort Worth",TX,32.736814,-97.369964,1,range_interpolation,3600,"Collinwood Ave","Fort Worth",TX,"Tarrant County",76107,US
5521,"3600 BLOCK  CORK PL","3600 CORK PL","Fort Worth",TX,32.719365,-97.458208,1,range_interpolation,3600,"Cork Pl","Fort Worth",TX,"Tarrant County",76116,US
5522,"3600 BLOCK  COTTON CREEK LN","3600 COTTON CREEK LN","Fort Worth",TX,32.617863,-97.374266,1,range_interpolation,3600,"Cotton Creek Ln","Fort Worth",TX,"Tarrant County",76123,US
5523,"3600 BLOCK  CRESTLINE RD","3600 CRESTLINE RD","Fort Worth",TX,32.743836,-97.370013,1,range_interpolation,3600,"Crestline Rd","Fort Worth",TX,"Tarrant County",76107,US
5524,"3600 BLOCK  CRIPPLE CREEK TRL","3600 CRIPPLE CREEK TRL","Fort Worth",TX,32.869968,-97.430887,0.8,street_center,,"Cripple Creek Dr","Fort Worth",TX,"Tarrant County",76179,US
5525,"3600 BLOCK  CROWBERRY WAY","3600 CROWBERRY WAY","Fort Worth",TX,32.817837,-97.083001,1,range_interpolation,3600,"Crowberry Way",Euless,TX,"Tarrant County",76040,US
5526,"3600 BLOCK  DECATUR AVE","3600 DECATUR AVE","Fort Worth",TX,32.808433,-97.339362,1,range_interpolation,3600,"Decatur Ave","Fort Worth",TX,"Tarrant County",76106,US
5527,"3600 BLOCK  DEEN RD","3600 DEEN RD","Fort Worth",TX,32.808486,-97.325882,0.8,range_interpolation,3600,"Deen Rd","Fort Worth",TX,"Tarrant County",76106,US
5528,"3600 BLOCK  DOMINY LN","3600 DOMINY LN","Fort Worth",TX,32.726184,-97.414878,1,range_interpolation,3600,"Dominy Ln","Fort Worth",TX,"Tarrant County",76116,US
5529,"3600 BLOCK  DONALEE ST","3600 DONALEE ST","Fort Worth",TX,32.710273,-97.267856,1,range_interpolation,3600,"Donalee St","Fort Worth",TX,"Tarrant County",76119,US
5530,"3600 BLOCK  EAST FWY","3600 EAST FREEWAY","Fort Worth",TX,32.6785,-97.330511,0.33,place,,,"Fort Worth",TX,"Tarrant County",76115,US
5531,"3600 BLOCK  EAST LOOP 820 NB SR","3600 EAST LOOP 820 SERVICE ROAD","Fort Worth",TX,32.759092,-97.214427,0.8,street_center,,"I- 820","Fort Worth",TX,"Tarrant County",76112,US
5532,"3600 BLOCK  EAST LOOP 820 SOUTH","3600 EAST LOOP 820 SOUTH","Fort Worth",TX,32.711801,-97.230066,1,range_interpolation,3600,"E Loop 820 S","Fort Worth",TX,"Tarrant County",76119,US
5533,"3600 BLOCK  EAST LOOP 820 SOUTH FWY","3600 EAST LOOP 820 SOUTH FREEWAY","Fort Worth",TX,32.711801,-97.230066,1,range_interpolation,3600,"E Loop 820 S","Fort Worth",TX,"Tarrant County",76119,US
5534,"3600 BLOCK  ELIZABETHTOWN CEMETE RD","3600 ELIZABETHTOWN CEMETE RD","Fort Worth",TX,32.715347,-97.22569,0.8,street_center,,"Elizabeth Rd","Fort Worth",TX,"Tarrant County",76119,US
5535,"3600 BLOCK  ELM ST","3600 ELM ST","Fort Worth",TX,32.758214,-97.326693,0.8,street_center,,"Elm St","Fort Worth",TX,"Tarrant County",76102,US
5536,"3600 BLOCK  ENCANTO DR","3600 ENCANTO DR","Fort Worth",TX,32.688101,-97.373649,1,range_interpolation,3600,"Encanto Dr","Fort Worth",TX,"Tarrant County",76109,US
5537,"3600 BLOCK  FENTON AVE","3600 FENTON AVE","Fort Worth",TX,32.659359,-97.368006,1,range_interpolation,3600,"Fenton Ave","Fort Worth",TX,"Tarrant County",76133,US
5538,"3600 BLOCK  FLEETWOOD DR","3600 FLEETWOOD DR","Fort Worth",TX,32.620473,-97.375577,1,range_interpolation,3600,"Fleetwood Dr","Fort Worth",TX,"Tarrant County",76123,US
5539,"3600 BLOCK  FORBES ST","3600 FORBES ST","Fort Worth",TX,32.715757,-97.27306,1,range_interpolation,3600,"Forbes St","Fort Worth",TX,"Tarrant County",76105,US
5540,"3600 BLOCK  FOSSIL DR","3600 FOSSIL DR","Fort Worth",TX,32.803947,-97.296585,1,range_interpolation,3600,"Fossil Dr","Fort Worth",TX,"Tarrant County",76111,US
5541,"3600 BLOCK  FRAZIER CT","3600 FRAZIER CT","Fort Worth",TX,32.551179,-97.455167,1,range_interpolation,3600,"Frazier Ct",Crowley,TX,"Johnson County",76036,US
5542,"3600 BLOCK  GALVEZ AVE","3600 GALVEZ AVE","Fort Worth",TX,32.762067,-97.296993,1,range_interpolation,3600,"Galvez Ave","Fort Worth",TX,"Tarrant County",76111,US
5543,"3600 BLOCK  GARRETT ST","3600 GARRETT ST","Fort Worth",TX,32.52757,-97.333901,0.8,street_center,,"Garrett St",Burleson,TX,"Johnson County",76028,US
5544,"3600 BLOCK  GORDON AVE","3600 GORDON AVE","Fort Worth",TX,32.696469,-97.348261,1,range_interpolation,3600,"Gordon Ave","Fort Worth",TX,"Tarrant County",76110,US
5545,"3600 BLOCK  GRANBURY RD","3600 GRANBURY RD","Fort Worth",TX,32.697126,-97.35766,1,range_interpolation,3600,"Granbury Rd","Fort Worth",TX,"Tarrant County",76109,US
5546,"3600 BLOCK  GRIGGS AVE","3600 GRIGGS AVE","Fort Worth",TX,32.710318,-97.259294,1,range_interpolation,3600,"Griggs Ave","Fort Worth",TX,"Tarrant County",76119,US
5547,"3600 BLOCK  HALLORAN ST","3600 HALLORAN ST","Fort Worth",TX,32.725343,-97.409793,1,range_interpolation,3600,"Halloran St","Fort Worth",TX,"Tarrant County",76107,US
5548,"3600 BLOCK  HARDEMAN ST","3600 HARDEMAN ST","Fort Worth",TX,32.702542,-97.271454,1,range_interpolation,3600,"Hardeman St","Fort Worth",TX,"Tarrant County",76119,US
5549,"3600 BLOCK  HARLEY AVE","3600 HARLEY AVE","Fort Worth",TX,32.74217,-97.370005,1,range_interpolation,3600,"Harley Ave","Fort Worth",TX,"Tarrant County",76107,US
5550,"3600 BLOCK  HATCHER ST","3600 HATCHER ST","Fort Worth",TX,32.710306,-97.258269,1,range_interpolation,3600,"Hatcher St","Fort Worth",TX,"Tarrant County",76119,US
5551,"3600 BLOCK  HAZELINE RD","3600 HAZELINE RD","Fort Worth",TX,32.737588,-97.273056,1,range_interpolation,3600,"Hazeline Rd","Fort Worth",TX,"Tarrant County",76103,US
5552,"3600 BLOCK  HEMPHILL ST","3600 HEMPHILL ST","Fort Worth",TX,32.697023,-97.331707,1,range_interpolation,3600,"Hemphill St","Fort Worth",TX,"Tarrant County",76110,US
5553,"3600 BLOCK  HIGHWAY 114","3600 HIGHWAY","Fort Worth",TX,32.743094,-97.426847,0.33,place,,,"Fort Worth",TX,"Tarrant County",76116,US
5554,"3600 BLOCK  HIGHWAY 157","3600 HIGHWAY","Fort Worth",TX,32.743094,-97.426847,0.33,place,,,"Fort Worth",TX,"Tarrant County",76116,US
5555,"3600 BLOCK  HOWARD ST","3600 HOWARD ST","Fort Worth",TX,32.696108,-97.271461,1,range_interpolation,3600,"Howard St","Fort Worth",TX,"Tarrant County",76119,US
5556,"3600 BLOCK  HULEN PARK CIR","3600 HULEN PARK CIR","Fort Worth",TX,32.625868,-97.370663,1,range_interpolation,3600,"Hulen Park Cir","Fort Worth",TX,"Tarrant County",76123,US
5557,"3600 BLOCK  HULEN ST","3600 HULEN ST","Fort Worth",TX,32.725127,-97.387763,0.9,range_interpolation,3600,"S Hulen St","Fort Worth",TX,"Tarrant County",76107,US
5558,"3600 BLOCK  JAMES AVE","3600 JAMES AVE","Fort Worth",TX,32.696702,-97.344948,1,range_interpolation,3600,"James Ave","Fort Worth",TX,"Tarrant County",76110,US
5559,"3600 BLOCK  KEARNEY AVE","3600 KEARNEY AVE","Fort Worth",TX,32.805753,-97.371054,1,range_interpolation,3600,"Kearney Ave","Fort Worth",TX,"Tarrant County",76106,US
5560,"3600 BLOCK  KELL ST","3600 KELL ST","Fort Worth",TX,32.697378,-97.367287,1,range_interpolation,3600,"Kell St","Fort Worth",TX,"Tarrant County",76109,US
5561,"3600 BLOCK  KELVIN AVE","3600 KELVIN AVE","Fort Worth",TX,32.655916,-97.368164,1,range_interpolation,3600,"Kelvin Ave","Fort Worth",TX,"Tarrant County",76133,US
5562,"3600 BLOCK  KIMBERLY LN","3600 KIMBERLY LN","Fort Worth",TX,32.668714,-97.369264,1,range_interpolation,3600,"Kimberly Ln","Fort Worth",TX,"Tarrant County",76133,US
5563,"3600 BLOCK  KODIAK CT","3600 KODIAK CT","Fort Worth",TX,32.874247,-97.302754,1,range_interpolation,3600,"Kodiak Ct","Fort Worth",TX,"Tarrant County",76137,US
5564,"3600 BLOCK  LAUGHTON ST","3600 LAUGHTON ST","Fort Worth",TX,32.696713,-97.335991,1,range_interpolation,3600,"Laughton St","Fort Worth",TX,"Tarrant County",76110,US
5565,"3600 BLOCK  LAWNDALE AVE","3600 LAWNDALE AVE","Fort Worth",TX,32.656757,-97.368452,1,range_interpolation,3600,"Lawndale Ave","Fort Worth",TX,"Tarrant County",76133,US
5566,"3600 BLOCK  LAWNWOOD ST","3600 LAWNWOOD ST","Fort Worth",TX,32.761073,-97.296605,1,range_interpolation,3600,"Lawnwood St","Fort Worth",TX,"Tarrant County",76111,US
5567,"3600 BLOCK  LEBOW ST","3600 LEBOW ST","Fort Worth",TX,32.809938,-97.329929,1,range_interpolation,3600,"Lebow St","Fort Worth",TX,"Tarrant County",76106,US
5568,"3600 BLOCK  LINDEN AVE","3600 LINDEN AVE","Fort Worth",TX,32.737693,-97.369993,1,range_interpolation,3600,"Linden Ave","Fort Worth",TX,"Tarrant County",76107,US
5569,"3600 BLOCK  LIPSCOMB ST","3600 LIPSCOMB ST","Fort Worth",TX,32.697071,-97.33415,1,range_interpolation,3600,"Lipscomb St","Fort Worth",TX,"Tarrant County",76110,US
5570,"3600 BLOCK  LIVINGSTON AVE","3600 LIVINGSTON AVE","Fort Worth",TX,32.696714,-97.347098,1,range_interpolation,3600,"Livingston Ave","Fort Worth",TX,"Tarrant County",76110,US
5571,"3600 BLOCK  LOCKE AVE","3600 LOCKE AVE","Fort Worth",TX,32.73163,-97.371247,1,range_interpolation,3600,"Locke Ave","Fort Worth",TX,"Tarrant County",76107,US
5572,"3600 BLOCK  LONGVUE AVE","3600 LONGVUE AVE","Fort Worth",TX,32.720471,-97.495353,1,range_interpolation,3600,"Longvue Ave","Fort Worth",TX,"Tarrant County",76116,US
5573,"3600 BLOCK  LOVELL AVE","3600 LOVELL AVE","Fort Worth",TX,32.731064,-97.380468,0.8,street_center,,"Lovell Ave","Fort Worth",TX,"Tarrant County",76107,US
5574,"3600 BLOCK  LYNNFIELD DR","3600 LYNNFIELD DR","Fort Worth",TX,32.73559,-97.273021,1,range_interpolation,3600,"Lynnfield Dr","Fort Worth",TX,"Tarrant County",76103,US
5575,"3600 BLOCK  MADRID DR","3600 MADRID DR","Fort Worth",TX,32.645389,-97.370855,1,range_interpolation,3600,"Madrid Dr","Fort Worth",TX,"Tarrant County",76133,US
5576,"3600 BLOCK  MANDERLY PL","3600 MANDERLY PL","Fort Worth",TX,32.689249,-97.373201,1,range_interpolation,3600,"Manderly Pl","Fort Worth",TX,"Tarrant County",76109,US
5577,"3600 BLOCK  MANSFIELD","3600 MANSFIELD","Fort Worth",TX,32.731133,-97.31033,0.8,street_center,,"Mansfield Ave","Fort Worth",TX,"Tarrant County",76104,US
5578,"3600 BLOCK  MANSFIELD HWY","3600 MANSFIELD HWY","Fort Worth",TX,32.679121,-97.271576,1,range_interpolation,3600,"Mansfield Hwy","Fort Worth",TX,"Tarrant County",76119,US
5579,"3600 BLOCK  MARTIN LUTHER KING FWY","3600 MARTIN LUTHER KING FREEWAY","Fort Worth",TX,32.707704,-97.272512,1,range_interpolation,3600,"Martin Luther King Fwy","Fort Worth",TX,"Tarrant County",76119,US
5580,"3600 BLOCK  MARTIN ST","3600 MARTIN ST","Fort Worth",TX,32.692081,-97.271502,1,range_interpolation,3600,"Martin St","Fort Worth",TX,"Tarrant County",76119,US
5581,"3600 BLOCK  MAURICE AVE","3600 MAURICE AVE","Fort Worth",TX,32.775635,-97.296559,1,range_interpolation,3600,"Maurice Ave","Fort Worth",TX,"Tarrant County",76111,US
5582,"3600 BLOCK  MAY ST","3600 MAY ST","Fort Worth",TX,32.6968,-97.328076,1,range_interpolation,3600,"May St","Fort Worth",TX,"Tarrant County",76110,US
5583,"3600 BLOCK  MEARES DR","3600 MEARES DR","Fort Worth",TX,32.870548,-97.303721,1,range_interpolation,3600,"Meares Dr","Fort Worth",TX,"Tarrant County",76137,US
5584,"3600 BLOCK  MILLER AVE","3600 MILLER AVE","Fort Worth",TX,32.709992,-97.263041,1,range_interpolation,3600,"Miller Ave","Fort Worth",TX,"Tarrant County",76119,US
5585,"3600 BLOCK  MILLET AVE","3600 MILLET AVE","Fort Worth",TX,32.722487,-97.272981,1,range_interpolation,3600,"Millet Ave","Fort Worth",TX,"Tarrant County",76105,US
5586,"3600 BLOCK  MINOT AVE","3600 MINOT AVE","Fort Worth",TX,32.658485,-97.368696,1,range_interpolation,3600,"Minot Ave","Fort Worth",TX,"Tarrant County",76133,US
5587,"3600 BLOCK  MODLIN AVE","3600 MODLIN AVE","Fort Worth",TX,32.750354,-97.369895,1,range_interpolation,3600,"Modlin Ave","Fort Worth",TX,"Tarrant County",76107,US
5588,"3600 BLOCK  MONTAGUE CT","3600 MONTAGUE CT","Fort Worth",TX,32.704677,-97.271445,1,range_interpolation,3600,"Montague Ct","Fort Worth",TX,"Tarrant County",76119,US
5589,"3600 BLOCK  MOUNTCASTLE DR","3600 MOUNTCASTLE DR","Fort Worth",TX,32.708957,-97.253393,1,range_interpolation,3600,"Mountcastle Dr","Fort Worth",TX,"Tarrant County",76119,US
5590,"3600 BLOCK  NEW YORK AVE","3600 NEW YORK AVE","Fort Worth",TX,32.696809,-97.31655,1,range_interpolation,3600,"New York Ave","Fort Worth",TX,"Tarrant County",76110,US
5591,"3600 BLOCK  NORTHEAST LOOP 820 FWY","3600 NORTHEAST LOOP 820 FREEWAY","Fort Worth",TX,32.818499,-97.401725,0.7,range_interpolation,3600,"Marine Lke Tributary","Fort Worth",TX,"Tarrant County",76106,US
5592,"3600 BLOCK  NORTHWEST CENTRE DR","3600 NORTHWEST CENTRE DR","Fort Worth",TX,32.750215,-97.106827,0.8,street_center,,"N Center St",Arlington,TX,"Tarrant County",76011,US
5593,"3600 BLOCK  OAK HILL ST","3600 OAK HILL ST","Fort Worth",TX,32.680798,-97.271593,1,range_interpolation,3600,"Oak Hill St","Fort Worth",TX,"Tarrant County",76119,US
5594,"3600 BLOCK  OAK TREE CIR","3600 OAK TREE CIR","Fort Worth",TX,32.651782,-97.371921,1,range_interpolation,3600,"Oak Tree Cir","Fort Worth",TX,"Tarrant County",76133,US
5595,"3600 BLOCK  PANOLA AVE","3600 PANOLA AVE","Fort Worth",TX,32.738519,-97.273112,1,range_interpolation,3600,"Panola Ave","Fort Worth",TX,"Tarrant County",76103,US
