id,o_address,o_city,o_state,o_zip,status,quality,m_address,m_city,m_state,m_zip,long,lat,not_sure,L_R
338,2800 E 12 STREET,KANSAS CITY,MO,64126,Match,Non_Exact,2800 E 12 St,KANSAS CITY,MO,64127,-94.549194,39.09879,91449355,L
339,3600 CLEVELAND AVENUE,KANSAS CITY,MO,64130,Match,Non_Exact,3600 Cleveland Ave,KANSAS CITY,MO,64128,-94.5395,39.06035,91452864,R
941,I 35 N TO NE VIVION RA and NE VIVION ROAD,KANSAS CITY,MO,"",No_Match,,,,,,,,,
942,I 70 HIGHWAY ON RA and PASEO,KANSAS CITY,MO,64106,No_Match,,,,,,,,,
940,I 35 HIGHWAY and NE VIVION ROAD,KANSAS CITY,MO,64119,No_Match,,,,,,,,,
945,INDEPENDENCE AVENUE and OLIVE STREET,KANSAS CITY,MO,64127,Tie,,,,,,,,,
332,10600 STATE LINE ROAD,KANSAS CITY,MO,64114,No_Match,,,,,,,,,
946,INDIANA AVENUE and E LINWOOD BOULEVARD,KANSAS CITY,MO,64128,Match,Exact,Indiana Ave & E Linwood Blvd,KANSAS CITY,MO,64128,-94.543724,39.067738,"",""
333,11600 E US HIGHWAY 40,KANSAS CITY,MO,64132,No_Match,,,,,,,,,
943,INDEPENDENCE AVENUE and INDIANA AVENUE,KANSAS CITY,MO,64123,Tie,,,,,,,,,
330,100 VAN BRUNT BOULEVARD,KANSAS CITY,MO,64123,Match,Exact,100 Van Brunt Blvd,KANSAS CITY,MO,64123,-94.52569,39.11261,91450691,R
331,100 WARD PK N,KANSAS CITY,MO,64112,No_Match,,,,,,,,,
944,INDEPENDENCE AVENUE and INDIANA AVENUE,KANSAS CITY,MO,64127,Tie,,,,,,,,,
336,2000 BROADWAY BOULEVARD,KANSAS CITY,MO,64106,No_Match,,,,,,,,,
949,LONGVIEW ROAD and US HIGHWAY 71,KANSAS CITY,MO,64134,Tie,,,,,,,,,
337,2600 INDEPENDENCE AVENUE,KANSAS CITY,MO,64123,Match,Non_Exact,2600 Independence Ave,KANSAS CITY,MO,64124,-94.55116,39.10632,91483592,L
334,1500 EMANUEL CLEAVER II BOULEVARD,KANSAS CITY,MO,64110,No_Match,,,,,,,,,
947,INDIANA AVENUE and E MEYER BOULEVARD,KANSAS CITY,MO,64132,Tie,,,,,,,,,
335,1700 INDEPENDENCE AVENUE,KANSAS CITY,MO,64123,Match,Non_Exact,1700 Independence Ave,KANSAS CITY,MO,64106,-94.560745,39.10668,91448817,L
948,LAWNDALE AVENUE and E TRUMAN ROAD,KANSAS CITY,MO,64126,No_Match,,,,,,,,,
748,100 NW 101 TERRACE,KANSAS CITY,MO,64155,Match,Exact,100 NW 101 Ter,KANSAS CITY,MO,64155,-94.58048,39.27712,89754019,R
531,2700 CAMPBELL STREET,KANSAS CITY,MO,64108,Match,Non_Exact,2700 Campbell St,KANSAS CITY,MO,64109,-94.57368,39.07775,91446342,R
747,100 N PROSPECT STREET,KEARNEY,MO,"",Match,Exact,100 N Prospect St,KEARNEY,MO,64060,-94.35869,39.373024,89784967,L
530,2500 NE VIVION ROAD,KANSAS CITY,MO,64119,Match,Non_Exact,2500 NE Vivion Rd,KANSAS CITY,MO,64118,-94.54935,39.18592,89785789,L
746,100 EMANUEL CLEAVER II BOULEVARD,KANSAS CITY,MO,64112,No_Match,,,,,,,,,
745,100 E PERSHING ROAD,KANSAS CITY,MO,64106,Match,Non_Exact,100 E Pershing Rd,KANSAS CITY,MO,64108,-94.58288,39.084393,91445936,L
535,3400 NORTON AVENUE,KANSAS CITY,MO,64130,Match,Non_Exact,3400 Norton Ave,KANSAS CITY,MO,64128,-94.53588,39.063797,91527642,R
534,3400 BELLEFONTAINE AVENUE,KANSAS CITY,MO,64130,Match,Non_Exact,3400 Bellefontaine Ave,KANSAS CITY,MO,64128,-94.54743,39.064175,91452062,R
533,3200 AGNES AVENUE,KANSAS CITY,MO,64130,Match,Non_Exact,3200 Agnes Ave,KANSAS CITY,MO,64128,-94.54833,39.06781,91450212,R
532,2800 POPLAR AVENUE,KANSAS CITY,MO,64127,Match,Non_Exact,2800 Poplar Ave,KANSAS CITY,MO,64128,-94.5264,39.074345,91451515,R
749,100 W 132 STREET,KANSAS CITY,MO,64145,Match,Exact,100 W 132 St,KANSAS CITY,MO,64145,-94.596596,38.888966,91530961,R
539,3800 AGNES AVENUE,KANSAS CITY,MO,64130,Match,Non_Exact,3800 Agnes Ave,KANSAS CITY,MO,64128,-94.54892,39.056988,91452101,R
740,W 39 STREET and BALTIMORE AVENUE,KANSAS CITY,MO,64111,Match,Exact,W 39 St & Baltimore Ave,KANSAS CITY,MO,64111,-94.58731,39.056618,"",""
538,3700 AGNES AVENUE,KANSAS CITY,MO,64130,Match,Non_Exact,3700 Agnes Ave,KANSAS CITY,MO,64128,-94.54882,39.0588,91452097,R
537,3600 BROADWAY BOULEVARD,KANSAS CITY,MO,64110,No_Match,,,,,,,,,
536,3500 ELMWOOD AVENUE,KANSAS CITY,MO,64127,Match,Non_Exact,3500 Elmwood Ave,KANSAS CITY,MO,64128,-94.53016,39.061813,91452937,R
744,100 E GREGORY BOULEVARD,KANSAS CITY,MO,64114,Match,Exact,100 E Gregory Blvd,KANSAS CITY,MO,64114,-94.58792,38.999374,91454638,L
743,100 ARROWHEAD DR,KANSAS CITY,MO,64128,No_Match,,,,,,,,,
742,W 39 STREET and WYOMING STREET,KANSAS CITY,MO,64111,Tie,,,,,,,,,
741,W 39 STREET and SOUTHWEST TRAFFICWAY,KANSAS CITY,MO,64110,No_Match,,,,,,,,,
349,9100 N AMBASSADOR DR,KANSAS CITY,MO,64153,No_Match,,,,,,,,,
930,E 9 STREET and PASEO,KANSAS CITY,MO,64106,Tie,,,,,,,,,
931,E 9 STREET and PROSPECT AVENUE,KANSAS CITY,MO,64127,Match,Non_Exact,E 9 St & Prospect Ave,KANSAS CITY,MO,64124,-94.551216,39.10247,"",""
932,E 9 STREET and SMITH AVENUE,KANSAS CITY,MO,64124,No_Match,,,,,,,,,
341,3800 BELLEFONTAINE AVENUE,KANSAS CITY,MO,64130,Match,Non_Exact,3800 Bellefontaine Ave,KANSAS CITY,MO,64128,-94.54782,39.056934,91452103,R
933,E 98 STREET and BENNINGTON AVENUE,KANSAS CITY,MO,64130,No_Match,,,,,,,,,
342,400 E 31 STREET,KANSAS CITY,MO,64109,Match,Non_Exact,400 E 31 St,KANSAS CITY,MO,64108,-94.57999,39.070847,91446115,L
343,5500 E 101 STREET,KANSAS CITY,MO,64134,Match,Non_Exact,5500 E 101 St,KANSAS CITY,MO,64137,-94.526245,38.94222,91458085,L
934,E 99 STREET and BLUE RIDGE BOULEVARD,KANSAS CITY,MO,64134,Match,Exact,E 99th St & Blue Ridge Blvd,KANSAS CITY,MO,64134,-94.50827,38.94516,"",""
344,6400 PASEO,KANSAS CITY,MO,64130,Tie,,,,,,,,,
935,E ARMOUR BOULEVARD and KENWOOD AVENUE,KANSAS CITY,MO,64109,Match,Exact,E Armour Blvd & Kenwood Ave,KANSAS CITY,MO,64109,-94.577515,39.063473,"",""
345,7000 E 113 TERRACE,KANSAS CITY,MO,64134,Match,Exact,7000 E 113 Ter,KANSAS CITY,MO,64134,-94.50947,38.917656,91466093,L
936,E ARMOUR BOULEVARD and TROOST AVENUE,KANSAS CITY,MO,64110,No_Match,,,,,,,,,
346,7700 E 107 STREET,KANSAS CITY,MO,64134,Match,Exact,7700 E 107 St,KANSAS CITY,MO,64134,-94.50036,38.930256,91466170,L
937,E BANNISTER ROAD and US HIGHWAY 71,KANSAS CITY,MO,64132,Tie,,,,,,,,,
347,8500 HOLMES ROAD,KANSAS CITY,MO,64114,Match,Non_Exact,8500 Holmes Rd,KANSAS CITY,MO,64131,-94.5812,38.9737,91455226,R
938,E GREGORY BOULEVARD and OLIVE STREET,KANSAS CITY,MO,64132,Match,Exact,E Gregory Blvd & Olive St,KANSAS CITY,MO,64132,-94.559204,38.998135,"",""
348,8800 BLUE RIDGE BOULEVARD,KANSAS CITY,MO,64134,Match,Non_Exact,8800 Blue Ridge Blvd,KANSAS CITY,MO,64138,-94.498695,38.963936,91464826,R
939,GRAND BOULEVARD and E TRUMAN ROAD,KANSAS CITY,MO,64111,No_Match,,,,,,,,,
735,INDEPENDENCE AVENUE and MYRTLE AVENUE,KANSAS CITY,MO,64124,Tie,,,,,,,,,
540,3800 MYRTLE AVENUE,KANSAS CITY,MO,64130,Match,Non_Exact,3800 Myrtle Ave,KANSAS CITY,MO,64128,-94.537476,39.05667,91527645,R
3,3700 BROADWAY BOULEVARD,KANSAS CITY,MO,64111,Match,Non_Exact,3700 Broadway St,KANSAS CITY,MO,64111,-94.59054,39.06122,91447334,R
734,INDEPENDENCE AVENUE and MAPLE BOULEVARD,KANSAS CITY,MO,64106,No_Match,,,,,,,,,
2,MILL STREET and WESTPORT ROAD,KANSAS CITY,MO,64111,Match,Exact,Mill St & Westport Rd,KANSAS CITY,MO,64111,-94.59226,39.05247,"",""
929,E 9 STREET and HARRISON STREET,KANSAS CITY,MO,64108,No_Match,,,,,,,,,
737,INDIANA AVENUE and E LINWOOD BOULEVARD,KANSAS CITY,MO,64130,No_Match,,,,,,,,,
542,3900 VINEYARD ROAD,KANSAS CITY,MO,64128,Match,Non_Exact,3900 Vineyard Rd,KANSAS CITY,MO,64130,-94.5255,39.055077,91453107,R
1,11600 E US HIGHWAY 40,KANSAS CITY,MO,64133,No_Match,,,,,,,,,
736,INDEPENDENCE AVENUE and PROSPECT AVENUE,KANSAS CITY,MO,64124,Tie,,,,,,,,,
541,3900 PROSPECT AVENUE,KANSAS CITY,MO,64128,Match,Non_Exact,3900 Prospect Ave,KANSAS CITY,MO,64130,-94.55361,39.055355,91505762,R
739,SOUTHWEST BOULEVARD and SUMMIT STREET,KANSAS CITY,MO,64105,No_Match,,,,,,,,,
544,4300 COLLEGE AVENUE,KANSAS CITY,MO,64127,Match,Non_Exact,4300 College Ave,KANSAS CITY,MO,64130,-94.54594,39.047836,91452268,R
7,14500 S US HIGHWAY 71,KANSAS CITY,MO,64147,Match,Exact,14500 US Hwy 71,KANSAS CITY,MO,64147,-94.52718,38.86255,91524016,R
738,JACKSON AVENUE and E TRUMAN ROAD,KANSAS CITY,MO,64127,Tie,,,,,,,,,
543,400 N VAN BRUNT BOULEVARD,KANSAS CITY,MO,64123,Match,Exact,400 N Van Brunt Blvd,KANSAS CITY,MO,64123,-94.52546,39.116894,91443677,L
6,8500 STATE LINE ROAD,KANSAS CITY,MO,64114,No_Match,,,,,,,,,
546,4700 N HIGHLAND AVENUE,KANSAS CITY,MO,64118,Match,Non_Exact,4700 N Highland Ave,KANSAS CITY,MO,64116,-94.55934,39.180065,89757740,L
5,100 ROYAL WAY,KANSAS CITY,MO,64129,No_Match,,,,,,,,,
340,3700 E GREGORY BOULEVARD,KANSAS CITY,MO,64131,Match,Non_Exact,3700 E Gregory Blvd,KANSAS CITY,MO,64132,-94.54364,38.998062,91456989,L
545,4600 STILLWELL AVENUE,KANSAS CITY,MO,64120,Match,Exact,4600 Stillwell Ave,KANSAS CITY,MO,64120,-94.52517,39.13962,91443514,L
4,3800 BROADWAY BOULEVARD,KANSAS CITY,MO,64111,Match,Non_Exact,3800 Broadway St,KANSAS CITY,MO,64111,-94.59072,39.0579,91447360,R
548,5000 GLENSIDE DR,KANSAS CITY,MO,64129,Match,Exact,5000 Glenside Dr,KANSAS CITY,MO,64129,-94.509224,39.034496,91460144,R
547,4900 WOODLAND AVENUE,KANSAS CITY,MO,64130,Match,Non_Exact,4900 Woodland Ave,KANSAS CITY,MO,64110,-94.56389,39.037643,91452326,R
9,4300 NE CHOUTEAU TRAFFICWAY,KANSAS CITY,MO,64117,Match,Exact,4300 NE Chouteau Trfy,KANSAS CITY,MO,64117,-94.533134,39.17069,89785808,L
549,5100 WALROND AVENUE,KANSAS CITY,MO,64132,Match,Non_Exact,5100 Walrond Ave,KANSAS CITY,MO,64130,-94.54785,39.033417,91452654,R
8,100 ARROWHEAD DR,KANSAS CITY,MO,64129,No_Match,,,,,,,,,
731,HICKMAN MILLS DR and E RED BRIDGE ROAD,KANSAS CITY,MO,64134,Match,Non_Exact,Hickman Mills Dr & E Red Bridge Rd,KANSAS CITY,MO,64134,-94.52452,38.925117,"",""
730,FOREST AVENUE and PRESIDENT AVENUE,KANSAS CITY,MO,64131,Match,Exact,Forest Ave & President Ave,KANSAS CITY,MO,64131,-94.57582,38.978466,"",""
733,I 70 HIGHWAY and JACKSON AVENUE,KANSAS CITY,MO,64128,No_Match,,,,,,,,,
732,I 435 HIGHWAY and E TRUMAN ROAD E,KANSAS CITY,MO,64127,No_Match,,,,,,,,,
920,E 63 TRAFFICWAY and WINCHESTER AVENUE,KANSAS CITY,MO,64130,No_Match,,,,,,,,,
318,E 43 STREET and CLEVELAND AVENUE,KANSAS CITY,MO,64130,Match,Exact,E 43 St & Cleveland Ave,KANSAS CITY,MO,64130,-94.540146,39.047733,"",""
319,E 50 STREET and GARFIELD AVENUE,KANSAS CITY,MO,64132,No_Match,,,,,,,,,
316,E 18 STREET and PASEO,KANSAS CITY,MO,64108,Match,Exact,E 18th St & The Paseo,KANSAS CITY,MO,64108,-94.56439,39.09122,"",""
317,E 27 STREET and BENTON BOULEVARD,KANSAS CITY,MO,64128,Match,Non_Exact,E 27 St & Benton Blvd,KANSAS CITY,MO,64127,-94.54899,39.076965,"",""
927,E 85 STREET and HOLMES ROAD,KANSAS CITY,MO,64131,Match,Exact,E 85th St & Holmes Rd,KANSAS CITY,MO,64131,-94.58118,38.973724,"",""
314,8800 EASTERN AVENUE,KANSAS CITY,MO,64138,Match,Exact,8800 Eastern Ave,KANSAS CITY,MO,64138,-94.50283,38.965164,91464760,R
928,E 87 STREET and TROOST AVENUE,KANSAS CITY,MO,64131,Match,Exact,E 87th St & Troost Ave,KANSAS CITY,MO,64131,-94.57671,38.96991,"",""
315,9900 WALNUT STREET,KANSAS CITY,MO,64114,Match,Non_Exact,9900 Walnut Dr,KANSAS CITY,MO,64114,-94.59112,38.94858,91456031,R
925,E 84 STREET and OLIVE STREET,KANSAS CITY,MO,64132,Match,Exact,E 84th St & Olive St,KANSAS CITY,MO,64132,-94.56037,38.974583,"",""
312,8600 E 108 TERRACE,KANSAS CITY,MO,64134,Match,Exact,8600 E 108 Ter,KANSAS CITY,MO,64134,-94.490944,38.92664,91491743,L
926,E 85 STREET and FLORA AVENUE,KANSAS CITY,MO,64132,No_Match,,,,,,,,,
313,8700 ELMWOOD AVE,KANSAS CITY,MO,64132,No_Match,,,,,,,,,
923,E 8 STREET and GLADSTONE AVENUE,KANSAS CITY,MO,64123,No_Match,,,,,,,,,
310,8400 E 63 TRAFFICWAY,KANSAS CITY,MO,64133,Match,Exact,8400 E 63rd Trfy,KANSAS CITY,MO,64133,-94.48485,39.009758,91526185,R
924,E 80 STREET and PASEO,KANSAS CITY,MO,64130,Tie,,,,,,,,,
311,8500 BLUE PK W,KANSAS CITY,MO,64129,No_Match,,,,,,,,,
921,E 67 STREET and PASEO,KANSAS CITY,MO,64130,No_Match,,,,,,,,,
922,E 73 STREET and MYRTLE AVENUE,KANSAS CITY,MO,64132,Match,Exact,E 73 St & Myrtle Ave,KANSAS CITY,MO,64132,-94.54079,38.993694,"",""
513,10900 MCKINLEY STREET,KANSAS CITY,MO,64134,Match,Non_Exact,10900 Mc Kinley Ave,KANSAS CITY,MO,64134,-94.48897,38.925606,91521665,R
512,10400 N REVERE COURT,KANSAS CITY,MO,64154,Match,Non_Exact,10400 Revere,KANSAS CITY,MO,64154,-94.649445,39.28333,39715947,L
729,EMANUEL CLEAVER II BOULEVARD and TROOST AVENUE,KANSAS CITY,MO,64130,No_Match,,,,,,,,,
511,100 W 53 TERRACE,KANSAS CITY,MO,64112,Match,Exact,100 W 53 Ter,KANSAS CITY,MO,64112,-94.58888,39.030125,91448130,R
728,E GREGORY BOULEVARD and I 435 HIGHWAY,KANSAS CITY,MO,64133,No_Match,,,,,,,,,
510,100 W 51 STREET,KANSAS CITY,MO,64112,Match,Exact,100 W 51 St,KANSAS CITY,MO,64112,-94.588524,39.03497,91448095,R
727,E 93 STREET and JAMES A REED ROAD,KANSAS CITY,MO,64138,Match,Exact,E 93rd St & James A Reed Rd,KANSAS CITY,MO,64138,-94.49392,38.954758,"",""
726,E 9 STREET and GRAND BOULEVARD,KANSAS CITY,MO,64106,Match,Exact,E 9 St & Grand Blvd,KANSAS CITY,MO,64106,-94.580734,39.10349,"",""
725,E 89 STREET and TROOST AVENUE,KANSAS CITY,MO,64130,No_Match,,,,,,,,,
919,E 63 STREET and WOODLAND AVENUE,KANSAS CITY,MO,64130,Match,Non_Exact,E 63 St & Woodland Ave,KANSAS CITY,MO,64130,-94.56477,39.012856,"",""
724,E 87 STREET and HILLCREST ROAD,KANSAS CITY,MO,64134,Match,Non_Exact,E 87th St & Hillcrest Rd,KANSAS CITY,MO,64138,-94.514885,38.96721,"",""
918,E 63 STREET and SOUTH BENTON AVENUE,KANSAS CITY,MO,64130,Match,Exact,E 63rd St & S Benton Ave,KANSAS CITY,MO,64130,-94.552666,39.012344,"",""
723,E 85 STREET and HICKMAN MILLS DR,KANSAS CITY,MO,64131,No_Match,,,,,,,,,
722,E 73 STREET and INDIANA AVENUE,KANSAS CITY,MO,64132,Match,Exact,E 73 St & Indiana Ave,KANSAS CITY,MO,64132,-94.54777,38.99399,"",""
721,E 7 STREET and NORTON AVENUE,KANSAS CITY,MO,64123,No_Match,,,,,,,,,
519,1300 EMANUEL CLEAVER II BOULEVARD,KANSAS CITY,MO,64110,No_Match,,,,,,,,,
720,E 67 STREET and PROSPECT AVENUE,KANSAS CITY,MO,64132,Match,Exact,E 67 St & Prospect Ave,KANSAS CITY,MO,64132,-94.556526,39.00529,"",""
518,12300 STATE LINE ROAD,KANSAS CITY,MO,64145,No_Match,,,,,,,,,
517,11800 E 59 CI,KANSAS CITY,MO,64133,Tie,,,,,,,,,
516,11700 N AMBASSADOR DR,KANSAS CITY,MO,64154,Match,Non_Exact,11700 N Ambassador Dr,KANSAS CITY,MO,64153,-94.68205,39.305767,39692122,L
515,11600 E US HIGHWAY 40 E,INDEPENDENCE,MO,64133,No_Match,,,,,,,,,
514,11100 N AMBASSADOR DR,KANSAS CITY,MO,64154,Match,Non_Exact,11100 N Ambassador Dr,KANSAS CITY,MO,64153,-94.68174,39.293537,39692210,L
327,MAIN STREET and PETTICOAT LN,KANSAS CITY,MO,64106,No_Match,,,,,,,,,
328,STREET JOHN AVENUE and WHEELING AVENUE,KANSAS CITY,MO,64123,No_Match,,,,,,,,,
329,100 E 14 STREET,KANSAS CITY,MO,64106,Match,Exact,100 E 14 St,KANSAS CITY,MO,64106,-94.582146,39.097202,91445240,L
914,E 53 STREET and CLEVELAND AVENUE,KANSAS CITY,MO,64130,Match,Exact,E 53 St & Cleveland Ave,KANSAS CITY,MO,64130,-94.54112,39.02967,"",""
323,EASTWOOD TRAFFICWAY and I 435 HIGHWAY,KANSAS CITY,MO,64129,No_Match,,,,,,,,,
915,E 53 TERRACE and MCCOY STREET,KANSAS CITY,MO,64133,No_Match,,,,,,,,,
324,INDEPENDENCE AVENUE and KENSINGTON AVENUE,KANSAS CITY,MO,64124,Tie,,,,,,,,,
916,E 58 STREET and PROSPECT AVENUE,KANSAS CITY,MO,64130,Match,Exact,E 58th St & Prospect Ave,KANSAS CITY,MO,64130,-94.55554,39.021114,"",""
325,INDEPENDENCE AVENUE and PASEO,KANSAS CITY,MO,64124,Tie,,,,,,,,,
917,E 63 STREET and CHESTNUT AVENUE,KANSAS CITY,MO,64132,Match,Non_Exact,E 63 St & Chestnut Ave,KANSAS CITY,MO,64130,-94.553696,39.012383,"",""
326,INDEPENDENCE AVENUE and WOODLAND AVENUE,KANSAS CITY,MO,64123,Tie,,,,,,,,,
910,E 49 STREET and MAIN STREET,KANSAS CITY,MO,64112,Match,Exact,E 49th St & Main St,KANSAS CITY,MO,64112,-94.58713,39.038525,"",""
709,E 31 STREET and JACKSON AVENUE,KANSAS CITY,MO,64128,Match,Exact,E 31 St & Jackson Ave,KANSAS CITY,MO,64128,-94.534485,39.06927,"",""
911,E 5 STREET and MAIN STREET,KANSAS CITY,MO,64106,Match,Non_Exact,E 5 St & Main St,KANSAS CITY,MO,64106,-94.58287,39.10831,"",""
320,E 8 STREET and GRAND BOULEVARD,KANSAS CITY,MO,64106,Match,Exact,E 8 St & Grand Blvd,KANSAS CITY,MO,64106,-94.58068,39.104424,"",""
912,E 50 STREET and PROSPECT AVENUE,KANSAS CITY,MO,64130,Match,Exact,E 50 St & Prospect Ave,KANSAS CITY,MO,64130,-94.554634,39.035564,"",""
321,E ARMOUR BOULEVARD and LOCUST STREET,KANSAS CITY,MO,64109,Match,Exact,E Armour Blvd & Locust St,KANSAS CITY,MO,64109,-94.57985,39.06357,"",""
913,E 52 STREET and WABASH AVENUE,KANSAS CITY,MO,64131,No_Match,,,,,,,,,
322,E BANNISTER ROAD and BLUE RIDGE BOULEVARD,KANSAS CITY,MO,64134,Match,Exact,E Bannister Rd & Blue Ridge Blvd,KANSAS CITY,MO,64134,-94.50794,38.952393,"",""
522,1400 NE VIVION ROAD,KANSAS CITY,MO,64119,Match,Non_Exact,1400 NE Vivion Rd,KANSAS CITY,MO,64118,-94.563225,39.181084,89785766,L
717,E 53 STREET and BROOKWOOD AVENUE,KANSAS CITY,MO,64130,Match,Exact,E 53 St & Brookwood Ave,KANSAS CITY,MO,64130,-94.5631,39.030457,"",""
521,1400 E 79 STREET,KANSAS CITY,MO,64132,Match,Non_Exact,1400 E 79 St,KANSAS CITY,MO,64131,-94.57061,38.98413,91455349,L
716,E 52 STREET and WAYNE AVENUE,KANSAS CITY,MO,64110,Match,Exact,E 52nd St & Wayne Ave,KANSAS CITY,MO,64110,-94.56653,39.032383,"",""
524,1800 E 59 STREET,KANSAS CITY,MO,64130,Match,Exact,1800 E 59 St,KANSAS CITY,MO,64130,-94.56489,39.01964,91452515,L
719,E 6 STREET and CLEVELAND AVENUE,KANSAS CITY,MO,64124,Tie,,,,,,,,,
523,14800 E US HIGHWAY 40,KANSAS CITY,MO,64136,Match,Exact,14800 US Hwy 40,KANSAS CITY,MO,64136,-94.40402,39.03518,91470576,L
718,E 59 STREET and SWOPE PK,KANSAS CITY,MO,64132,No_Match,,,,,,,,,
908,E 45 STREET and PASEO,KANSAS CITY,MO,64110,Match,Exact,E 45 St & The Paseo,KANSAS CITY,MO,64110,-94.56812,39.045124,"",""
713,E 38 STREET and HIGHLAND AVENUE,KANSAS CITY,MO,64110,No_Match,,,,,,,,,
907,E 44 STREET and PASEO,KANSAS CITY,MO,64110,Tie,,,,,,,,,
712,E 38 STREET and COLLEGE AVENUE,KANSAS CITY,MO,64127,No_Match,,,,,,,,,
520,1300 HIGHLAND AVENUE,KANSAS CITY,MO,64109,Match,Non_Exact,1300 Highland Ave,KANSAS CITY,MO,64106,-94.56177,39.097427,91448982,R
715,E 43 STREET and TRACY AVENUE,KANSAS CITY,MO,64109,Tie,,,,,,,,,
909,E 46 STREET and PROSPECT AVENUE,KANSAS CITY,MO,64130,Match,Exact,E 46 St & Prospect Ave,KANSAS CITY,MO,64130,-94.55426,39.042786,"",""
714,E 40 STREET and PROSPECT AVENUE,KANSAS CITY,MO,64129,No_Match,,,,,,,,,
529,2400 NE VIVION ROAD,KANSAS CITY,MO,64119,Match,Non_Exact,2400 NE Vivion Rd,KANSAS CITY,MO,64118,-94.549934,39.185535,89785788,L
711,E 37 STREET and BROOKLYN AVENUE,KANSAS CITY,MO,64109,Tie,,,,,,,,,
710,E 36 STREET and NORTON AVENUE,KANSAS CITY,MO,64128,Match,Exact,E 36 St & Norton Ave,KANSAS CITY,MO,64128,-94.536026,39.060337,"",""
526,2000 BRIGHTON AVENUE,KANSAS CITY,MO,64128,Match,Non_Exact,2000 Brighton Ave,KANSAS CITY,MO,64127,-94.524345,39.08693,91451412,R
525,200 BENTON BOULEVARD,KANSAS CITY,MO,64123,Match,Non_Exact,200 Benton Blvd,KANSAS CITY,MO,64124,-94.54434,39.112373,91449243,R
528,2300 HOLMES STREET,KANSAS CITY,MO,64110,Match,Non_Exact,2300 Holmes St,KANSAS CITY,MO,64108,-94.575806,39.08501,91446169,R
527,2000 E 48 TERRACE,KANSAS CITY,MO,64130,Match,Exact,2000 E 48 Ter,KANSAS CITY,MO,64130,-94.5603,39.038433,91452342,L
989,1800 E 82 STREET,KANSAS CITY,MO,64131,Match,Non_Exact,1800 E 82 St,KANSAS CITY,MO,64132,-94.56699,38.978527,91455411,L
988,1700 TOPPING AVENUE,KANSAS CITY,MO,64127,Match,Non_Exact,1700 Topping Ave,KANSAS CITY,MO,64126,-94.51496,39.090317,632606365,R
987,1600 E 12 STREET,KANSAS CITY,MO,64106,Match,Exact,1600 E 12 St,KANSAS CITY,MO,64106,-94.56254,39.099228,91529287,L
571,8300 E 111 TERRACE,KANSAS CITY,MO,64134,Match,Exact,8300 E 111 Ter,KANSAS CITY,MO,64134,-94.49502,38.921417,91466267,L
570,8100 WILSON AVENUE,KANSAS CITY,MO,64123,Match,Non_Exact,8100 Wilson Ave,KANSAS CITY,MO,64125,-94.48772,39.109413,91459292,L
982,1000 W 101 TERRACE,KANSAS CITY,MO,64114,Match,Exact,1000 W 101 Ter,KANSAS CITY,MO,64114,-94.60346,38.94506,91483722,R
981,1000 N CAMBRIDGE AVENUE,KANSAS CITY,MO,64123,Match,Non_Exact,1000 N Cambridge Ave,KANSAS CITY,MO,64120,-94.49977,39.126614,91517253,R
980,100 WORLDS OF FUN DR,KANSAS CITY,MO,64161,No_Match,,,,,,,,,
986,1500 PASEO,KANSAS CITY,MO,64106,Match,Non_Exact,1500 The Paseo,KANSAS CITY,MO,64108,-94.5646,39.094498,91449007,R
985,1500 CITADEL DR,KANSAS CITY,MO,64130,Match,Non_Exact,1500 Citadel Dr,KANSAS CITY,MO,64110,-94.56849,39.01642,624765997,L
984,1400 TOPPING AVENUE,KANSAS CITY,MO,64127,Match,Non_Exact,1400 Topping Ave,KANSAS CITY,MO,64126,-94.514725,39.094955,91458653,R
983,1300 E BANNISTER ROAD,KANSAS CITY,MO,64137,No_Match,,,,,,,,,
700,E 108 STREET and GREENWOOD ROAD,KANSAS CITY,MO,64134,Match,Exact,E 108th St & Greenwood Rd,KANSAS CITY,MO,64134,-94.489624,38.92741,"",""
574,8800 NE 116 TERRACE,KANSAS CITY,MO,64157,No_Match,,,,,,,,,
703,E 17 TERRACE and PASEO,KANSAS CITY,MO,64108,No_Match,,,,,,,,,
575,900 E ARMOUR BOULEVARD,KANSAS CITY,MO,64111,Match,Non_Exact,900 E Armour Blvd,KANSAS CITY,MO,64109,-94.57398,39.063347,91447787,L
704,E 19 STREET and PASEO,KANSAS CITY,MO,64127,No_Match,,,,,,,,,
572,8500 N FLINTLOCK ROAD,KANSAS CITY,MO,64157,Match,Exact,8500 Flintlock Rd,KANSAS CITY,MO,64157,-94.46545,39.24618,89790261,L
701,E 114 STREET and EASTERN AVENUE,KANSAS CITY,MO,64134,Match,Exact,E 114th St & Eastern Ave,KANSAS CITY,MO,64134,-94.50201,38.919273,"",""
702,E 12 STREET and GRAND BOULEVARD,KANSAS CITY,MO,64106,Match,Exact,E 12 St & Grand Blvd,KANSAS CITY,MO,64106,-94.58092,39.09985,"",""
573,8500 NW PRAIRIE VIEW ROAD,KANSAS CITY,MO,64152,No_Match,,,,,,,,,
707,E 25 STREET and PROSPECT AVENUE,KANSAS CITY,MO,64127,Match,Exact,E 25th St & Prospect Ave,KANSAS CITY,MO,64127,-94.552315,39.080723,"",""
578,ARCHIBALD AVENUE and CENTRAL STREET,KANSAS CITY,MO,64111,Tie,,,,,,,,,
708,E 30 STREET and GILLHAM ROAD,KANSAS CITY,MO,64109,No_Match,,,,,,,,,
579,BENTON BOULEVARD and E TRUMAN ROAD,KANSAS CITY,MO,64127,Match,Exact,Benton Blvd & E Truman Rd,KANSAS CITY,MO,64127,-94.54448,39.0944,"",""
705,E 24 STREET and JACKSON AVENUE,KANSAS CITY,MO,64127,Tie,,,,,,,,,
576,9000 E 22 TERRACE,KANSAS CITY,MO,64127,No_Match,,,,,,,,,
706,E 24 STREET and TOPPING AVENUE,KANSAS CITY,MO,64128,No_Match,,,,,,,,,
577,9400 MCKINLEY AVENUE,KANSAS CITY,MO,64134,No_Match,,,,,,,,,
977,100 E 56 TERRACE,KANSAS CITY,MO,64113,Match,Non_Exact,100 E 56 St,KANSAS CITY,MO,64113,-94.58553,39.0258,91448339,L
976,100 E 52 STREET,KANSAS CITY,MO,64112,Match,Exact,100 E 52 St,KANSAS CITY,MO,64112,-94.58628,39.03264,91527089,L
300,4700 JARBOE STREET,KANSAS CITY,MO,64111,Match,Non_Exact,4700 Jarboe St,KANSAS CITY,MO,64112,-94.59972,39.042484,91446841,R
979,100 N ROME CI,KANSAS CITY,MO,64153,No_Match,,,,,,,,,
978,100 HARDESTY AVENUE,KANSAS CITY,MO,64124,Match,Exact,100 Hardesty Ave,KANSAS CITY,MO,64124,-94.51872,39.11238,91450773,R
580,BENTON BOULEVARD and INDEPENDENCE AVENUE,KANSAS CITY,MO,64106,Tie,,,,,,,,,
302,500 NE BARRY ROAD,KANSAS CITY,MO,64118,No_Match,,,,,,,,,
301,500 E ARMOUR BOULEVARD,KANSAS CITY,MO,64109,Match,Exact,500 E Armour Blvd,KANSAS CITY,MO,64109,-94.579796,39.06358,91447452,L
582,BLUE PK E and CLEVELAND AVENUE,KANSAS CITY,MO,64129,No_Match,,,,,,,,,
304,5400 N ANTIOCH ROAD,KANSAS CITY,MO,64119,Match,Exact,5400 N Antioch Rd,KANSAS CITY,MO,64119,-94.54873,39.192085,89757609,L
581,BENTON BOULEVARD and LOCKRIDGE STREET,KANSAS CITY,MO,64127,No_Match,,,,,,,,,
303,5100 N TOPPING AVENUE,KANSAS CITY,MO,64117,Match,Non_Exact,5100 N Topping Ave,KANSAS CITY,MO,64119,-94.51201,39.186195,89761371,L
306,700 BROADWAY BOULEVARD,KANSAS CITY,MO,64105,Match,Non_Exact,700 Broadway St,KANSAS CITY,MO,64105,-94.58818,39.105534,91444886,R
305,600 NE 41 STREET,KANSAS CITY,MO,64117,Match,Non_Exact,600 NE 41st St,KANSAS CITY,MO,64116,-94.57359,39.168056,89756425,L
308,7300 NW 87 TERRACE,KANSAS CITY,MO,64154,No_Match,,,,,,,,,
971,W 99 STREET and WORNALL ROAD,KANSAS CITY,MO,64114,Match,Exact,W 99 St & Wornall Rd,KANSAS CITY,MO,64114,-94.59626,38.948822,"",""
307,7000 E BANNISTER ROAD,KANSAS CITY,MO,64138,Match,Non_Exact,7000 E Bannister Rd,KANSAS CITY,MO,64134,-94.50785,38.9524,91465727,L
970,W 89 STREET and WORNALL ROAD,KANSAS CITY,MO,64114,Match,Exact,W 89th St & Wornall Rd,KANSAS CITY,MO,64114,-94.595406,38.966934,"",""
973,100 E 14 STREET,KANSAS CITY,MO,64105,Match,Non_Exact,100 E 14 St,KANSAS CITY,MO,64106,-94.582146,39.097202,91445240,L
309,7500 E 111 TERRACE,KANSAS CITY,MO,64134,Match,Exact,7500 E 111 Ter,KANSAS CITY,MO,64134,-94.50321,38.923702,91466182,L
972,100 BELMONT BOULEVARD,KANSAS CITY,MO,64123,Match,Exact,100 Belmont Blvd,KANSAS CITY,MO,64123,-94.50937,39.112038,91458515,R
975,100 E 46 STREET,KANSAS CITY,MO,64111,Match,Non_Exact,100 E 46 St,KANSAS CITY,MO,64112,-94.58517,39.04311,91519228,L
974,100 E 45 STREET,KANSAS CITY,MO,64109,Match,Non_Exact,100 E 45 St,KANSAS CITY,MO,64111,-94.58502,39.045914,91447634,L
583,BROADWAY and LAWRENCE STREET,KANSAS CITY,MO,64111,Match,Non_Exact,Broadway St & Lawrence St,KANSAS CITY,MO,64111,-94.58954,39.05202,"",""
584,BROOKLYN AVENUE and E TRUMAN ROAD,KANSAS CITY,MO,64108,No_Match,,,,,,,,,
585,BROOKLYN AVENUE and INDEPENDENCE AVENUE,KANSAS CITY,MO,64106,No_Match,,,,,,,,,
586,BROOKLYN AVENUE and STREET JOHN AVENUE,KANSAS CITY,MO,64106,No_Match,,,,,,,,,
587,CLEVELAND AVENUE and INDEPENDENCE AVENUE,KANSAS CITY,MO,64124,Match,Exact,Cleveland Ave & Independence Ave,KANSAS CITY,MO,64124,-94.537224,39.10583,"",""
588,COLLINS AVENUE and E TRUMAN ROAD,KANSAS CITY,MO,64127,No_Match,,,,,,,,,
589,E 10 STREET and HARRISON STREET,KANSAS CITY,MO,64106,Match,Exact,E 10 St & Harrison St,KANSAS CITY,MO,64106,-94.57102,39.101936,"",""
969,W 65 STREET and BALTIMORE AVENUE,KANSAS CITY,MO,64131,No_Match,,,,,,,,,
968,W 47 STREET and BROADWAY,KANSAS CITY,MO,64112,Match,Non_Exact,W 47th St & Broadway St,KANSAS CITY,MO,64112,-94.59155,39.04228,"",""
967,W 39 STREET and WASHINGTON STREET,KANSAS CITY,MO,64111,Match,Exact,W 39 St & Washington St,KANSAS CITY,MO,64111,-94.5915,39.056767,"",""
966,W 39 STREET and SOUTHWEST TRAFFICWAY,KANSAS CITY,MO,64111,No_Match,,,,,,,,,
965,W 39 STREET and PENNSYLVANIA AVENUE,KANSAS CITY,MO,64111,Match,Exact,W 39 St & Pennsylvania Ave,KANSAS CITY,MO,64111,-94.59307,39.056824,"",""
964,W 37 STREET and BROADWAY BOULEVARD,KANSAS CITY,MO,64111,Match,Non_Exact,W 37 St & Broadway St,KANSAS CITY,MO,64111,-94.590576,39.060352,"",""
963,W 33 STREET and SOUTHWEST TRAFFICWAY,KANSAS CITY,MO,64111,No_Match,,,,,,,,,
962,W 3 STREET and DELAWARE STREET,KANSAS CITY,MO,64105,Match,Exact,W 3rd St & Delaware St,KANSAS CITY,MO,64105,-94.584595,39.109627,"",""
961,W 14 STREET and WYANDOTTE STREET,KANSAS CITY,MO,64105,Match,Exact,W 14th St & Wyandotte St,KANSAS CITY,MO,64105,-94.585724,39.097298,"",""
960,TROOST AVENUE and VOLKER BOULEVARD,KANSAS CITY,MO,64130,No_Match,,,,,,,,,
558,6000 E 95 TERRACE,KANSAS CITY,MO,64137,No_Match,,,,,,,,,
559,6000 INDEPENDENCE AVENUE S,KANSAS CITY,MO,64124,No_Match,,,,,,,,,
556,600 E BANNISTER ROAD,KANSAS CITY,MO,64131,No_Match,,,,,,,,,
557,6000 E 16 TERRACE,KANSAS CITY,MO,64127,Match,Non_Exact,6000 E 16 Ter,KANSAS CITY,MO,64126,-94.512405,39.09122,91458692,L
554,5500 E 17 STREET,KANSAS CITY,MO,64126,Match,Non_Exact,5500 E 17 St,KANSAS CITY,MO,64127,-94.518326,39.09047,91451450,L
555,5800 E 19 TERRACE,KANSAS CITY,MO,64127,Match,Non_Exact,5800 E 19 Ter,KANSAS CITY,MO,64126,-94.514946,39.087383,91458957,L
552,5300 PASEO,KANSAS CITY,MO,64131,Match,Non_Exact,5300 The Paseo,KANSAS CITY,MO,64110,-94.56777,39.030533,91448566,R
553,5500 BONITA AVENUE,KANSAS CITY,MO,64128,Match,Exact,5500 Bonita Ave,KANSAS CITY,MO,64128,-94.5192,39.07385,91451646,L
550,5300 BUDD PARK ESPLANADE,KANSAS CITY,MO,64124,No_Match,,,,,,,,,
551,5300 N MERSINGTON AVENUE,KANSAS CITY,MO,64117,Match,Non_Exact,5300 N Mersington Ave,KANSAS CITY,MO,64119,-94.533455,39.1899,89758383,L
959,OAK STREET and E TRUMAN ROAD,KANSAS CITY,MO,64106,No_Match,,,,,,,,,
958,NW ENGLEWOOD ROAD and NW WAUKOMIS DR,KANSAS CITY,MO,64151,No_Match,,,,,,,,,
560,6600 E 12 TERRACE,KANSAS CITY,MO,64127,Match,Non_Exact,6600 E 12 Ter,KANSAS CITY,MO,64126,-94.50535,39.096474,91458771,L
955,NE 49 STREET and N DENVER AVENUE,KANSAS CITY,MO,64119,Match,Exact,NE 49th St & N Denver Ave,KANSAS CITY,MO,64119,-94.51894,39.18254,"",""
954,NE 48 STREET and N OAKLEY AVENUE,KANSAS CITY,MO,64117,Match,Non_Exact,NE 48th St & N Oakley Ave,KANSAS CITY,MO,64119,-94.513954,39.18058,"",""
957,NW 68 STREET and N US HIGHWAY 169 RA,KANSAS CITY,MO,64118,No_Match,,,,,,,,,
956,NE 91 TERRACE and N GLENWOOD AVENUE,KANSAS CITY,MO,64156,No_Match,,,,,,,,,
951,MILL STREET and WESTPORT ROAD,KANSAS CITY,MO,64110,No_Match,,,,,,,,,
950,LONGVIEW ROAD and WINCHESTER AVENUE,KANSAS CITY,MO,64134,Tie,,,,,,,,,
953,NE 42 STREET and N OAK TRAFFICWAY,KANSAS CITY,MO,64116,Match,Non_Exact,NE 42nd St & N Oak Fwy,KANSAS CITY,MO,64116,-94.57675,39.170345,"",""
952,N GRAND AVENUE and NE HARLEM ROAD,KANSAS CITY,MO,64116,Match,Exact,N Grand Ave & NE Harlem Rd,KANSAS CITY,MO,64116,-94.58364,39.118282,"",""
569,7900 N ANITA DR,KANSAS CITY,MO,64151,Match,Non_Exact,7900 N Anita Ave,KANSAS CITY,MO,64151,-94.632835,39.237175,39693376,L
565,7600 NW TIFFANY SPRINGS PK W,KANSAS CITY,MO,64154,No_Match,,,,,,,,,
566,7700 SNI-A-BAR TERRACE,KANSAS CITY,MO,64129,Match,Exact,7700 Sni A Bar Ter,KANSAS CITY,MO,64129,-94.493286,39.034973,91460302,L
567,7800 E 113 TERRACE,KANSAS CITY,MO,64134,Match,Exact,7800 E 113 Ter,KANSAS CITY,MO,64134,-94.5006,38.91981,91466262,L
568,7900 LEE'S SUMMIT ROAD,KANSAS CITY,MO,64136,Match,Non_Exact,7900 Lee's Summit Rd,KANSAS CITY,MO,64139,-94.39039,38.97441,91491977,R
561,6600 MONROE AVENUE,KANSAS CITY,MO,64130,Match,Non_Exact,6600 Monroe Ave,KANSAS CITY,MO,64132,-94.54364,39.006752,91456857,R
562,6600 PROSPECT AVENUE,KANSAS CITY,MO,64131,Match,Non_Exact,6600 Prospect Ave,KANSAS CITY,MO,64132,-94.55646,39.006973,91456558,R
563,6900 E 113 TERRACE,KANSAS CITY,MO,64134,Match,Exact,6900 E 113 Ter,KANSAS CITY,MO,64134,-94.510796,38.917877,91466093,L
564,7300 E 108 TERRACE,KANSAS CITY,MO,64134,Match,Exact,7300 E 108 Ter,KANSAS CITY,MO,64134,-94.50458,38.92963,91466043,L
799,3800 NW 94 STREET,KANSAS CITY,MO,64154,No_Match,,,,,,,,,
798,3800 BLUE RIDGE COURT,KANSAS CITY,MO,64128,No_Match,,,,,,,,,
797,3700 S EMANUEL CLEAVER II BOULEVARD,KANSAS CITY,MO,64130,No_Match,,,,,,,,,
796,3700 BROADWAY BOULEVARD,KANSAS CITY,MO,64109,No_Match,,,,,,,,,
795,3500 BLUE RIDGE COURT,KANSAS CITY,MO,64133,Match,Non_Exact,3500 Blue Ridge Cutoff,KANSAS CITY,MO,64133,-94.472305,39.05965,91460499,R
794,3400 THOMPSON AVENUE,KANSAS CITY,MO,64123,Match,Non_Exact,3400 Thompson Ave,KANSAS CITY,MO,64124,-94.54211,39.107815,91449297,L
793,3300 TROOST AVENUE,KANSAS CITY,MO,64108,Match,Non_Exact,3300 Troost Ave,KANSAS CITY,MO,64109,-94.571556,39.06678,91446456,R
792,3300 PROSPECT AVENUE,KANSAS CITY,MO,64130,Match,Non_Exact,3300 Prospect Ave,KANSAS CITY,MO,64128,-94.55304,39.066147,91450186,R
790,3300 COLLEGE AVENUE,KANSAS CITY,MO,64130,Match,Non_Exact,3300 College Ave,KANSAS CITY,MO,64128,-94.544975,39.065895,91450277,R
996,2600 E 27 STREET,KANSAS CITY,MO,64128,Match,Non_Exact,2600 E 27 St,KANSAS CITY,MO,64127,-94.55242,39.077106,91450151,L
791,3300 HARRISON STREET,KANSAS CITY,MO,64110,Match,Non_Exact,3300 Harrison St,KANSAS CITY,MO,64109,-94.57292,39.066833,91446455,R
997,2800 HOLMES STREET,KANSAS CITY,MO,64110,Match,Non_Exact,2800 Holmes St,KANSAS CITY,MO,64109,-94.57633,39.0754,91446315,R
994,2400 E 70 STREET,KANSAS CITY,MO,64131,Match,Non_Exact,2400 E 70 St,KANSAS CITY,MO,64132,-94.5583,38.999935,91456681,L
995,2400 GILLHAM STREET,KANSAS CITY,MO,64110,No_Match,,,,,,,,,
992,2100 E LINWOOD BOULEVARD,KANSAS CITY,MO,64111,Match,Non_Exact,2100 E Linwood Blvd,KANSAS CITY,MO,64109,-94.55865,39.06826,91449882,L
993,2300 INDEPENDENCE AVENUE,KANSAS CITY,MO,64106,Match,Non_Exact,2300 Independence Ave,KANSAS CITY,MO,64124,-94.55435,39.10644,91448916,L
990,1800 N TOPPING AVENUE,KANSAS CITY,MO,64123,Match,Exact,1800 N Topping Ave,KANSAS CITY,MO,64123,-94.51372,39.140457,91443738,R
991,1800 VINE STREET,KANSAS CITY,MO,64106,Match,Non_Exact,1800 Vine St,KANSAS CITY,MO,64108,-94.56338,39.091164,91449033,R
998,2900 PENN VALLEY DR,KANSAS CITY,MO,64108,Match,Exact,2900 Penn Valley Dr,KANSAS CITY,MO,64108,-94.58995,39.07477,91445975,R
999,3000 CHERRY STREET,KANSAS CITY,MO,64106,Match,Non_Exact,3000 Cherry St,KANSAS CITY,MO,64108,-94.57767,39.0724,91446329,R
781,300 MAIN STREET,KANSAS CITY,MO,64106,Tie,,,,,,,,,
782,300 VAN BRUNT BOULEVARD,KANSAS CITY,MO,64124,Match,Exact,300 Van Brunt Blvd,KANSAS CITY,MO,64124,-94.52579,39.11072,91450695,R
783,300 W 115 TERRACE,KANSAS CITY,MO,64114,Match,Exact,300 W 115 Ter,KANSAS CITY,MO,64114,-94.59691,38.918053,91455918,R
784,300 W 72 STREET,KANSAS CITY,MO,64130,Match,Non_Exact,300 W 72 St,KANSAS CITY,MO,64114,-94.592834,38.997757,91453979,R
785,3000 INDEPENDENCE AVENUE,KANSAS CITY,MO,64123,Match,Non_Exact,3000 Independence Ave,KANSAS CITY,MO,64124,-94.545876,39.106163,91449284,L
786,3000 MERSINGTON AVENUE,KANSAS CITY,MO,64130,Match,Non_Exact,3000 Mersington Ave,KANSAS CITY,MO,64128,-94.53782,39.07111,91451235,R
787,3100 KENSINGTON AVENUE,KANSAS CITY,MO,64127,Match,Non_Exact,3100 Kensington Ave,KANSAS CITY,MO,64128,-94.532166,39.06911,91451329,R
788,3200 DENVER AVENUE,KANSAS CITY,MO,64110,No_Match,,,,,,,,,
789,3300 BROADWAY BOULEVARD,KANSAS CITY,MO,64111,Match,Non_Exact,3300 Broadway St,KANSAS CITY,MO,64111,-94.59018,39.067524,91446009,R
780,300 ASKEW AVENUE,KANSAS CITY,MO,64123,Match,Non_Exact,300 Askew Ave,KANSAS CITY,MO,64124,-94.538826,39.11129,91450321,R
505,W 14 STREET and WYANDOTTE STREET,KANSAS CITY,MO,64106,No_Match,,,,,,,,,
772,2200 VAN BRUNT BOULEVARD,KANSAS CITY,MO,64127,Match,Exact,2200 Van Brunt Blvd,KANSAS CITY,MO,64127,-94.52101,39.08503,91451456,R
506,W 38 STREET and BROADWAY BOULEVARD,KANSAS CITY,MO,64111,Tie,,,,,,,,,
773,2300 GRAND BOULEVARD,KANSAS CITY,MO,64106,Match,Non_Exact,2300 Grand Blvd,KANSAS CITY,MO,64108,-94.58164,39.085392,91518883,R
503,I 29 HIGHWAY and N OAK TRAFFICWAY,KANSAS CITY,MO,64116,No_Match,,,,,,,,,
770,2000 VAN BRUNT BOULEVARD,KANSAS CITY,MO,64127,Match,Exact,2000 Van Brunt Blvd,KANSAS CITY,MO,64127,-94.520836,39.08685,91451454,R
504,INDEPENDENCE AVENUE and OLIVE STREET,KANSAS CITY,MO,64124,Tie,,,,,,,,,
771,2100 WOODLAND AVENUE,KANSAS CITY,MO,64110,Match,Non_Exact,2100 Woodland Ave,KANSAS CITY,MO,64108,-94.561226,39.086998,91449595,R
509,100 W 38 STREET,KANSAS CITY,MO,64111,Match,Exact,100 W 38 St,KANSAS CITY,MO,64111,-94.58727,39.058445,91447388,R
776,2700 BALES AVENUE,KANSAS CITY,MO,64127,Match,Non_Exact,2700 Bales Ave,KANSAS CITY,MO,64128,-94.542145,39.07665,91450232,R
777,2700 BRIGHTON AVENUE,KANSAS CITY,MO,64127,Match,Non_Exact,2700 Brighton Ave,KANSAS CITY,MO,64128,-94.52498,39.07611,91451526,R
507,100 NE VIVION ROAD,KANSAS CITY,MO,64118,Match,Exact,100 NE Vivion Rd,KANSAS CITY,MO,64118,-94.58012,39.181175,89756258,L
774,2500 INDEPENDENCE BLVD,KANSAS CITY,MO,64124,Match,Non_Exact,2500 Independence Ave,KANSAS CITY,MO,64124,-94.55222,39.106354,91483592,L
508,100 NW 112 TERRACE,KANSAS CITY,MO,64155,Match,Exact,100 NW 112 Ter,KANSAS CITY,MO,64155,-94.58136,39.29745,89779248,L
775,2600 INDEPENDENCE AVENUE,KANSAS CITY,MO,64106,Match,Non_Exact,2600 Independence Ave,KANSAS CITY,MO,64124,-94.55116,39.10632,91483592,L
778,2700 PROSPECT AVENUE,KANSAS CITY,MO,64130,Match,Non_Exact,2700 Prospect Ave,KANSAS CITY,MO,64128,-94.5525,39.07704,91450145,R
779,2900 VAN BRUNT BOULEVARD,KANSAS CITY,MO,64127,Match,Non_Exact,2900 Van Brunt Blvd,KANSAS CITY,MO,64128,-94.520706,39.072407,91451621,R
501,E 9 STREET and CHARLOTTE STREET,KANSAS CITY,MO,64106,Match,Exact,E 9 St & Charlotte St,KANSAS CITY,MO,64106,-94.57375,39.103245,"",""
502,GLADSTONE BOULEVARD and INDEPENDENCE AVENUE,KANSAS CITY,MO,64123,No_Match,,,,,,,,,
500,E 87 STREET and BLUE RIDGE BOULEVARD,KANSAS CITY,MO,64138,Match,Exact,E 87 St & Blue Ridge Blvd,KANSAS CITY,MO,64138,-94.49963,38.966415,"",""
763,1400 E 67 STREET,KANSAS CITY,MO,64131,Match,Exact,1400 E 67 St,KANSAS CITY,MO,64131,-94.57043,39.00586,91454870,L
764,1400 NE PARVIN ROAD,KANSAS CITY,MO,64117,No_Match,,,,,,,,,
765,14500 E US HIGHWAY 40,KANSAS CITY,MO,64136,Match,Exact,14500 US Hwy 40,KANSAS CITY,MO,64136,-94.40978,39.035416,91505694,L
766,14500 S 71 HIGHWAY,KANSAS CITY,MO,64147,No_Match,,,,,,,,,
760,11900 WORNALL ROAD,KANSAS CITY,MO,64114,Match,Non_Exact,11900 Wornall Rd,KANSAS CITY,MO,64145,-94.59358,38.912716,91455954,R
761,1300 E 59 STREET,KANSAS CITY,MO,64130,Match,Non_Exact,1300 E 59 St,KANSAS CITY,MO,64110,-94.57184,39.01989,91448714,L
762,13100 HOLMES ROAD,KANSAS CITY,MO,64146,Match,Non_Exact,13100 Holmes Rd,KANSAS CITY,MO,64145,-94.586006,38.889942,91476294,R
767,1700 EMANUEL CLEAVER II BOULEVARD,KANSAS CITY,MO,64130,No_Match,,,,,,,,,
768,1900 VAN BRUNT BOULEVARD,KANSAS CITY,MO,64126,Match,Non_Exact,1900 Van Brunt Blvd,KANSAS CITY,MO,64127,-94.5201,39.089928,91491450,R
769,2000 NE PARVIN ROAD,KANSAS CITY,MO,64117,Match,Non_Exact,2000 NE Parvin Rd,KANSAS CITY,MO,64116,-94.556885,39.166733,89758816,L
754,10600 STATE LINE ROAD,KANSAS CITY,MO,64145,No_Match,,,,,,,,,
755,10700 SYCAMORE TERRACE,KANSAS CITY,MO,"",Match,Exact,10700 Sycamore Ter,KANSAS CITY,MO,64134,-94.50759,38.929676,91466040,L
752,100 W POCAHONTAS LN,KANSAS CITY,MO,64114,Match,Exact,100 W Pocahontas Ln,KANSAS CITY,MO,64114,-94.591736,38.97324,91454396,R
753,10600 HILLCREST ROAD,KANSAS CITY,MO,64134,Match,Exact,10600 Hillcrest Rd,KANSAS CITY,MO,64134,-94.52283,38.93288,91458339,R
750,100 W 57 TERRACE,KANSAS CITY,MO,64113,Match,Non_Exact,100 W 57 St,KANSAS CITY,MO,64113,-94.5891,39.02412,91448241,R
751,100 W 81 STREET,KANSAS CITY,MO,64114,Match,Exact,100 W 81 St,KANSAS CITY,MO,64114,-94.591125,38.981316,91454286,R
758,11400 HOLMES ROAD,KANSAS CITY,MO,64114,Match,Non_Exact,11400 Holmes Rd,KANSAS CITY,MO,64131,-94.58394,38.918526,91524803,R
759,11600 E US HIGHWAY 40,KANSAS CITY,MO,64130,No_Match,,,,,,,,,
756,1100 EMANUEL CLEAVER II BOULEVARD,KANSAS CITY,MO,64130,No_Match,,,,,,,,,
757,1100 TROOST AVENUE,KANSAS CITY,MO,64109,Match,Non_Exact,1100 Troost Ave,KANSAS CITY,MO,64106,-94.569855,39.100628,91445706,R
595,E 23 STREET and VAN BRUNT BOULEVARD,KANSAS CITY,MO,64127,Match,Exact,E 23 St & Van Brunt Blvd,KANSAS CITY,MO,64127,-94.52109,39.0833,"",""
594,E 18 STREET and PROSPECT AVENUE,KANSAS CITY,MO,64127,Match,Exact,E 18 St & Prospect Ave,KANSAS CITY,MO,64127,-94.55181,39.09081,"",""
597,E 28 STREET and TROOST AVENUE,KANSAS CITY,MO,64109,Match,Exact,E 28th St & Troost Ave,KANSAS CITY,MO,64109,-94.57105,39.07611,"",""
391,3700 BALES AVENUE,KANSAS CITY,MO,64130,Match,Non_Exact,3700 Bales Ave,KANSAS CITY,MO,64128,-94.543045,39.05861,91452173,R
596,E 26 STREET and CYPRESS AVENUE,KANSAS CITY,MO,64127,Match,Exact,E 26th St & Cypress Ave,KANSAS CITY,MO,64127,-94.53087,39.078197,"",""
390,3400 LOCUST STREET,KANSAS CITY,MO,64108,Match,Non_Exact,3400 Locust St,KANSAS CITY,MO,64109,-94.57979,39.06523,91447446,R
599,E 34 STREET and PASEO,KANSAS CITY,MO,64109,Match,Exact,E 34 St & The Paseo,KANSAS CITY,MO,64109,-94.567,39.06491,"",""
393,4000 N BENNINGTON AVENUE,KANSAS CITY,MO,64119,Match,Non_Exact,4000 N Bennington Ave,KANSAS CITY,MO,64117,-94.50249,39.16756,89761478,L
598,E 30 STREET and PROSPECT AVENUE,KANSAS CITY,MO,64127,No_Match,,,,,,,,,
392,3800 INDEPENDENCE AVENUE,KANSAS CITY,MO,64123,Match,Non_Exact,3800 Independence Ave,KANSAS CITY,MO,64124,-94.53684,39.105835,91450392,L
395,4200 INDEPENDENCE AVENUE,KANSAS CITY,MO,64123,Match,Non_Exact,4200 Independence Ave,KANSAS CITY,MO,64124,-94.53297,39.105713,91450457,L
394,4100 N WINN ROAD,KANSAS CITY,MO,64117,Match,Non_Exact,4100 NE Winn Rd,KANSAS CITY,MO,64117,-94.53193,39.168064,89785447,L
396,4700 JEFFERSON STREET,KANSAS CITY,MO,64111,Match,Non_Exact,4700 Jefferson St,KANSAS CITY,MO,64112,-94.59467,39.042286,91446955,R
397,5300 E 12 STREET,KANSAS CITY,MO,64126,Match,Non_Exact,5300 E 12 St,KANSAS CITY,MO,64127,-94.520065,39.097794,91450909,L
398,5600 E 112 TERRACE,KANSAS CITY,MO,64137,Match,Exact,5600 E 112 Ter,KANSAS CITY,MO,64137,-94.52565,38.92071,91499563,L
399,6000 PROSPECT AVENUE,KANSAS CITY,MO,64131,Match,Non_Exact,6000 Prospect Ave,KANSAS CITY,MO,64130,-94.55592,39.017567,91452596,R
590,E 11 STREET and BENTON BOULEVARD,KANSAS CITY,MO,64124,No_Match,,,,,,,,,
591,E 13 STREET and MAIN STREET,KANSAS CITY,MO,64106,Match,Non_Exact,E 13th St & Main St,KANSAS CITY,MO,64106,-94.58326,39.0986,"",""
592,E 14 STREET and PROSPECT AVENUE,KANSAS CITY,MO,64127,Match,Exact,E 14th St & Prospect Ave,KANSAS CITY,MO,64127,-94.55156,39.095875,"",""
593,E 18 STREET and CYPRESS AVENUE,KANSAS CITY,MO,64127,Match,Exact,E 18 St & Cypress Ave,KANSAS CITY,MO,64127,-94.53016,39.09006,"",""
383,2500 ROCHESTER AVENUE,KANSAS CITY,MO,64120,Match,Exact,2500 Rochester Ave,KANSAS CITY,MO,64120,-94.55232,39.120785,91443396,L
384,2600 NE VIVION ROAD,KANSAS CITY,MO,64118,Match,Non_Exact,2600 NE Vivion Rd,KANSAS CITY,MO,64119,-94.54883,39.186264,89785796,L
381,2100 E 39 STREET,KANSAS CITY,MO,64111,Match,Non_Exact,2100 E 39 St,KANSAS CITY,MO,64109,-94.55966,39.055656,91451855,L
382,2400 E 67 TERRACE,KANSAS CITY,MO,64132,Match,Exact,2400 E 67 Ter,KANSAS CITY,MO,64132,-94.55771,39.004436,91456548,L
380,1900 INDEPENDENCE AVENUE,KANSAS CITY,MO,64123,Match,Non_Exact,1900 Independence Ave,KANSAS CITY,MO,64124,-94.55852,39.106586,91448896,L
389,3100 JACKSON AVENUE,KANSAS CITY,MO,64127,Match,Non_Exact,3100 Jackson Ave,KANSAS CITY,MO,64128,-94.53451,39.069183,91451321,R
388,3000 TROOST AVENUE,KANSAS CITY,MO,64106,Match,Non_Exact,3000 Troost Ave,KANSAS CITY,MO,64109,-94.57125,39.072216,91446415,R
387,300 EMANUEL CLEAVER II BOULEVARD,KANSAS CITY,MO,64112,No_Match,,,,,,,,,
386,2700 KENSINGTON AVENUE,KANSAS CITY,MO,64127,Match,Non_Exact,2700 Kensington Ave,KANSAS CITY,MO,64128,-94.531555,39.076324,91451270,R
385,2600 WALROND AVENUE,KANSAS CITY,MO,64128,Match,Non_Exact,2600 Walrond Ave,KANSAS CITY,MO,64127,-94.545876,39.078655,91450106,R
370,INDEPENDENCE AVENUE and SPRUCE AVENUE,KANSAS CITY,MO,64124,Tie,,,,,,,,,
371,INDEPENDENCE AVENUE and VAN BRUNT BOULEVARD,KANSAS CITY,MO,64124,Tie,,,,,,,,,
372,TERRACE STREET and WESTPORT ROAD,KANSAS CITY,MO,64111,Match,Exact,Terrace St & Westport Rd,KANSAS CITY,MO,64111,-94.603195,39.050068,"",""
373,W 14 STREET and BALTIMORE AVENUE,KANSAS CITY,MO,64108,No_Match,,,,,,,,,
379,1600 FOREST AVENUE,KANSAS CITY,MO,64106,Match,Non_Exact,1600 Forest Ave,KANSAS CITY,MO,64108,-94.56886,39.09398,91445781,R
378,1500 GRAND BOULEVARD,KANSAS CITY,MO,64106,Match,Non_Exact,1500 Grand Blvd,KANSAS CITY,MO,64108,-94.58115,39.0956,91445251,R
375,W 48 STREET and MAIN STREET,KANSAS CITY,MO,64112,Match,Exact,W 48th St & Main St,KANSAS CITY,MO,64112,-94.58708,39.03933,"",""
374,W 30TH STREET and PENN DR,KANSAS CITY,MO,64108,No_Match,,,,,,,,,
377,100 W PERSHING ROAD,KANSAS CITY,MO,"",Match,Exact,100 W Pershing Rd,KANSAS CITY,MO,64108,-94.58882,39.083385,91528138,R
376,100 ARROWHEAD DR,KANSAS CITY,MO,64127,No_Match,,,,,,,,,
361,E 14 STREET and MAIN STREET,KANSAS CITY,MO,64106,Match,Non_Exact,E 14 St & Main St,KANSAS CITY,MO,64106,-94.583336,39.09722,"",""
362,E 39 STREET and PROSPECT AVENUE,KANSAS CITY,MO,64128,Match,Exact,E 39 St & Prospect Ave,KANSAS CITY,MO,64128,-94.55359,39.055447,"",""
360,E 10 STREET and LOCUST STREET,KANSAS CITY,MO,64106,Match,Exact,E 10th St & Locust St,KANSAS CITY,MO,64106,-94.577286,39.10214,"",""
366,E 63 STREET and BRUCE R WATKINS DR,KANSAS CITY,MO,64130,No_Match,,,,,,,,,
365,E 53 STREET and BROOKLYN AVENUE,KANSAS CITY,MO,64130,Match,Exact,E 53rd St & Brooklyn Ave,KANSAS CITY,MO,64130,-94.55962,39.030327,"",""
364,E 51 STREET and SWOPE PK,KANSAS CITY,MO,64130,Tie,,,,,,,,,
363,E 45 STREET and CLEVELAND AVENUE,KANSAS CITY,MO,64130,Match,Exact,E 45th St & Cleveland Ave,KANSAS CITY,MO,64130,-94.54032,39.044106,"",""
369,INDEPENDENCE AVENUE and NORTON AVENUE,KANSAS CITY,MO,64124,Match,Exact,Independence Ave & Norton Ave,KANSAS CITY,MO,64124,-94.534134,39.105743,"",""
368,INDEPENDENCE AVENUE and MAPLE BOULEVARD,KANSAS CITY,MO,64124,Match,Exact,Independence Ave & Maple Blvd,KANSAS CITY,MO,64124,-94.558586,39.106575,"",""
367,E 63 STREET and TROOST AVENUE,KANSAS CITY,MO,64130,No_Match,,,,,,,,,
350,9400 BLUE RIDGE BOULEVARD,KANSAS CITY,MO,64134,Match,Non_Exact,9400 Blue Ridge Blvd,KANSAS CITY,MO,64138,-94.50787,38.95371,91465724,R
351,9400 CLEVELAND AVENUE,KANSAS CITY,MO,64130,Match,Non_Exact,9400 Cleveland Ave,KANSAS CITY,MO,64132,-94.543976,38.95642,91506783,R
353,BENTON BOULEVARD and INDEPENDENCE AVENUE,KANSAS CITY,MO,64123,Tie,,,,,,,,,
352,ARCHIBALD AVENUE and PENNSYLVANIA AVENUE,KANSAS CITY,MO,64111,Match,Exact,Archibald Ave & Pennsylvania Ave,KANSAS CITY,MO,64111,-94.59078,39.051994,"",""
355,BLUE RIDGE COURT and RAYTOWN ROAD,KANSAS CITY,MO,64129,Match,Non_Exact,Blue Ridge Cutoff & Raytown Rd,KANSAS CITY,MO,64133,-94.47635,39.03681,"",""
354,BLUE PK E and CLEVELAND AVENUE,KANSAS CITY,MO,64130,Match,Non_Exact,Blue Pkwy & Cleveland Ave,KANSAS CITY,MO,64130,-94.54075,39.03632,"",""
357,BRUCE R WATKINS DR and E MEYER BOULEVARD,KANSAS CITY,MO,64130,No_Match,,,,,,,,,
356,BLUE RIDGE COURT and RAYTOWN ROAD,KANSAS CITY,MO,64133,Match,Non_Exact,Blue Ridge Cutoff & Raytown Rd,KANSAS CITY,MO,64133,-94.47635,39.03681,"",""
359,DONNELLY AVENUE and WINNER ROAD,KANSAS CITY,MO,64123,No_Match,,,,,,,,,
358,CLEVELAND AVENUE and E GREGORY BOULEVARD,KANSAS CITY,MO,64130,No_Match,,,,,,,,,
806,4200 E 67 TERRACE,KANSAS CITY,MO,64130,Match,Non_Exact,4200 E 67 Ter,KANSAS CITY,MO,64132,-94.536804,39.003517,91457354,L
807,4200 LOCUST STREET,KANSAS CITY,MO,64106,Match,Non_Exact,4200 Locust St,KANSAS CITY,MO,64110,-94.58063,39.05088,91447644,R
804,4100 BLUE RIDGE COURT,KANSAS CITY,MO,64129,No_Match,,,,,,,,,
805,4200 E 63 STREET,KANSAS CITY,MO,64131,Match,Non_Exact,4200 E 63 St,KANSAS CITY,MO,64130,-94.5375,39.011497,91457326,L
802,4000 INDIANA AVENUE,KANSAS CITY,MO,64128,Match,Non_Exact,4000 Indiana Ave,KANSAS CITY,MO,64130,-94.54449,39.053223,91452170,R
803,4000 SOUTH BENTON AVENUE,KANSAS CITY,MO,64128,No_Match,,,,,,,,,
800,400 HIGHLAND AVENUE,KANSAS CITY,MO,64108,Match,Non_Exact,400 Highland Ave,KANSAS CITY,MO,64106,-94.56154,39.11052,91448772,R
801,4000 BALES AVENUE,KANSAS CITY,MO,64127,Match,Non_Exact,4000 Bales Ave,KANSAS CITY,MO,64130,-94.54336,39.053185,91452182,R
159,E 43 STREET and PROSPECT AVENUE,KANSAS CITY,MO,64127,No_Match,,,,,,,,,
158,E 3 STREET and GRAND BOULEVARD,KANSAS CITY,MO,64106,Tie,,,,,,,,,
157,BLUE RIDGE BOULEVARD and LONGVIEW ROAD,KANSAS CITY,MO,64134,Match,Exact,Blue Ridge Blvd & Longview Rd,KANSAS CITY,MO,64134,-94.51329,38.91546,"",""
156,8500 STATE LINE ROAD,KANSAS CITY,MO,64130,No_Match,,,,,,,,,
155,8200 NW PRAIRIE VIEW ROAD,KANSAS CITY,MO,64152,Match,Non_Exact,8200 NW Prairie View Rd,KANSAS CITY,MO,64151,-94.6588,39.242672,39697331,L
154,6900 PASEO,KANSAS CITY,MO,64131,Match,Non_Exact,6900 The Paseo,KANSAS CITY,MO,64132,-94.56265,39.001858,91456493,R
152,5200 N ANTIOCH ROAD,KANSAS CITY,MO,64118,Match,Non_Exact,5200 N Antioch Rd,KANSAS CITY,MO,64119,-94.54879,39.18862,89757882,L
601,E 39 STREET and INDIANA AVENUE,KANSAS CITY,MO,64128,Match,Exact,E 39th St & Indiana Ave,KANSAS CITY,MO,64128,-94.54437,39.055122,"",""
153,6200 STREET JOHN AVENUE,KANSAS CITY,MO,64124,No_Match,,,,,,,,,
600,E 38 STREET and MAIN STREET,KANSAS CITY,MO,64111,Match,Exact,E 38th St & Main St,KANSAS CITY,MO,64111,-94.586,39.058384,"",""
150,4800 N OAK TRAFFICWAY,KANSAS CITY,MO,64116,No_Match,,,,,,,,,
151,5100 BLUE RIDGE COURT,KANSAS CITY,MO,64129,No_Match,,,,,,,,,
609,E 63 STREET and SWOPE PK,KANSAS CITY,MO,64130,No_Match,,,,,,,,,
608,E 59 STREET and TROOST AVENUE,KANSAS CITY,MO,64130,No_Match,,,,,,,,,
607,E 56 STREET and WABASH AVENUE,KANSAS CITY,MO,64130,Match,Non_Exact,E 56 St & Wabash Ave,KANSAS CITY,MO,64110,-94.556465,39.02477,"",""
606,E 5 STREET and WALNUT STREET,KANSAS CITY,MO,64106,Match,Exact,E 5th St & Walnut St,KANSAS CITY,MO,64106,-94.581665,39.108543,"",""
605,E 43 STREET and EUCLID AVENUE,KANSAS CITY,MO,64127,No_Match,,,,,,,,,
604,E 40 STREET and TROOST AVENUE,KANSAS CITY,MO,64129,No_Match,,,,,,,,,
603,E 39 STREET and WALNUT STREET,KANSAS CITY,MO,64111,Tie,,,,,,,,,
602,E 39 STREET and PASEO,KANSAS CITY,MO,64109,Match,Exact,E 39 St & The Paseo,KANSAS CITY,MO,64109,-94.56749,39.055916,"",""
202,9900 HOLMES ROAD,KANSAS CITY,MO,64114,Match,Non_Exact,9900 Holmes Rd,KANSAS CITY,MO,64131,-94.58237,38.94822,91525209,R
203,E 12 STREET and MCGEE STREET,KANSAS CITY,MO,64106,Match,Exact,E 12 St & McGee St,KANSAS CITY,MO,64106,-94.579735,39.09981,"",""
204,E 19 STREET and OAK STREET,KANSAS CITY,MO,64109,No_Match,,,,,,,,,
205,E 35 STREET and PROSPECT AVENUE,KANSAS CITY,MO,64109,No_Match,,,,,,,,,
200,8600 E 97 TERRACE,KANSAS CITY,MO,64138,Match,Non_Exact,8600 E 97 Ter,KANSAS CITY,MO,64134,-94.48891,38.9474,91491744,L
201,8700 E 63 TRAFFICWAY,KANSAS CITY,MO,64130,Match,Non_Exact,8700 E 63rd Trfy,KANSAS CITY,MO,64133,-94.48323,39.009697,91526185,R
169,5400 INDEPENDENCE AVENUE,KANSAS CITY,MO,64124,Match,Non_Exact,5400 Independence Ave,KANSAS CITY,MO,64123,-94.51909,39.10522,91450820,L
206,E 35 STREET and PROSPECT AVENUE,KANSAS CITY,MO,64128,Match,Exact,E 35th St & Prospect Ave,KANSAS CITY,MO,64128,-94.55321,39.062626,"",""
166,200 EMANUEL CLEAVER II BOULEVARD,KANSAS CITY,MO,64112,No_Match,,,,,,,,,
207,E 44 STREET and PROSPECT AVENUE,KANSAS CITY,MO,64110,No_Match,,,,,,,,,
165,1700 INDEPENDENCE AVENUE,KANSAS CITY,MO,64124,Match,Non_Exact,1700 Independence Ave,KANSAS CITY,MO,64106,-94.560745,39.10668,91448817,L
208,E 56 STREET and SWOPE PK,KANSAS CITY,MO,64130,No_Match,,,,,,,,,
168,5200 N ANTIOCH ROAD,KANSAS CITY,MO,64117,Match,Non_Exact,5200 N Antioch Rd,KANSAS CITY,MO,64119,-94.54879,39.18862,89757882,L
209,E 75 STREET and TROOST AVENUE,KANSAS CITY,MO,64130,No_Match,,,,,,,,,
167,3300 MONTGALL AVENUE,KANSAS CITY,MO,64127,Match,Non_Exact,3300 Montgall Ave,KANSAS CITY,MO,64128,-94.551865,39.0661,91450192,R
161,E 55 STREET and BRUCE R WATKINS DR,KANSAS CITY,MO,64130,No_Match,,,,,,,,,
409,9400 HOLMES ROAD,KANSAS CITY,MO,64131,Match,Exact,9400 Holmes Rd,KANSAS CITY,MO,64131,-94.581955,38.956978,91494101,R
162,LEEDS TRAFFICWAY and STADIUM DR,KANSAS CITY,MO,64130,No_Match,,,,,,,,,
408,9200 RICHMOND DR,KANSAS CITY,MO,64134,Match,Non_Exact,9200 Richmond Dr,KANSAS CITY,MO,64138,-94.50034,38.95799,91465838,R
163,100 W 10 STREET,KANSAS CITY,MO,64105,Match,Exact,100 W 10 St,KANSAS CITY,MO,64105,-94.58428,39.10227,91445154,R
164,100 W 10 STREET,KANSAS CITY,MO,64106,Tie,,,,,,,,,
405,8500 E 110 TERRACE,KANSAS CITY,MO,64134,Match,Exact,8500 E 110 Ter,KANSAS CITY,MO,64134,-94.4937,38.92289,91466309,L
404,8400 E 114 TERRACE,KANSAS CITY,MO,64134,Match,Exact,8400 E 114 Ter,KANSAS CITY,MO,64134,-94.49402,38.915405,91466333,L
407,9200 JAMES A REED ROAD,KANSAS CITY,MO,64134,Match,Non_Exact,9200 James A Reed Rd,KANSAS CITY,MO,64138,-94.49387,38.9563,91465913,R
160,E 53 STREET and BRUCE R WATKINS DR,KANSAS CITY,MO,64130,No_Match,,,,,,,,,
406,8600 E 63 TRAFFICWAY,KANSAS CITY,MO,64130,Match,Non_Exact,8600 E 63rd Trfy,KANSAS CITY,MO,64133,-94.48377,39.009716,91526185,R
401,6800 NW 83 TERRACE,KANSAS CITY,MO,64152,Match,Exact,6800 NW 83 Ter,KANSAS CITY,MO,64152,-94.6591,39.245293,39711975,R
400,6300 PROSPECT AVENUE,KANSAS CITY,MO,64131,Match,Non_Exact,6300 Prospect Ave,KANSAS CITY,MO,64132,-94.55618,39.0124,91456510,R
403,7500 E 108 TERRACE,KANSAS CITY,MO,64134,Match,Exact,7500 E 108 Ter,KANSAS CITY,MO,64134,-94.502144,38.92874,91466057,L
402,7400 E 111 TERRACE,KANSAS CITY,MO,64134,Match,Exact,7400 E 111 Ter,KANSAS CITY,MO,64134,-94.504234,38.923096,91466182,L
824,5800 NW 63 STREET,KANSAS CITY,MO,64151,No_Match,,,,,,,,,
211,RUSKIN WAY and SYCAMORE TERRACE,KANSAS CITY,MO,64134,Match,Exact,Ruskin Way & Sycamore Ter,KANSAS CITY,MO,64134,-94.49746,38.920444,"",""
825,5900 INDEPENDENCE AVENUE,KANSAS CITY,MO,64124,Match,Non_Exact,5900 Independence Ave,KANSAS CITY,MO,64125,-94.51293,39.104996,91458544,L
212,W 43 STREET and BROADWAY,KANSAS CITY,MO,64111,Match,Non_Exact,W 43rd St & Broadway St,KANSAS CITY,MO,64111,-94.588264,39.049377,"",""
822,5800 E 21 STREET,KANSAS CITY,MO,64127,Match,Non_Exact,5800 E 21st St,KANSAS CITY,MO,64126,-94.515045,39.085514,91458960,L
823,5800 N HOLLY DR,KANSAS CITY,MO,64118,Match,Non_Exact,5800 N Holly St,KANSAS CITY,MO,64118,-94.593376,39.201195,89755479,L
210,E RED BRIDGE ROAD and US HIGHWAY 71,KANSAS CITY,MO,64137,Tie,,,,,,,,,
828,6400 INDEPENDENCE AVENUE,KANSAS CITY,MO,64124,Match,Non_Exact,6400 Independence Ave,KANSAS CITY,MO,64125,-94.50719,39.10479,91458571,L
215,100 NW BARRY ROAD,KANSAS CITY,MO,64155,Match,Exact,100 NW Barry Rd,KANSAS CITY,MO,64155,-94.581345,39.246456,89790115,R
829,6500 E 12 STREET,KANSAS CITY,MO,64125,Match,Non_Exact,6500 E 12 St,KANSAS CITY,MO,64126,-94.506516,39.097424,91458768,L
216,100 W ARMOUR BOULEVARD,KANSAS CITY,MO,64111,Match,Exact,100 W Armour Blvd,KANSAS CITY,MO,64111,-94.58694,39.063847,91447341,R
826,600 E ARMOUR BOULEVARD,KANSAS CITY,MO,64111,Match,Non_Exact,600 E Armour Blvd,KANSAS CITY,MO,64109,-94.578636,39.06353,91447707,L
213,100 E 12 STREET,KANSAS CITY,MO,64106,Tie,,,,,,,,,
827,6300 BROOKSIDE PL,KANSAS CITY,MO,64114,No_Match,,,,,,,,,
214,100 E LINWOOD BOULEVARD,KANSAS CITY,MO,64109,Match,Non_Exact,100 E Linwood Blvd,KANSAS CITY,MO,64111,-94.58363,39.06841,91446087,L
219,13100 STATE LINE ROAD,KANSAS CITY,MO,64145,No_Match,,,,,,,,,
179,400 VAN BRUNT BOULEVARD,KANSAS CITY,MO,64123,Match,Non_Exact,400 Van Brunt Blvd,KANSAS CITY,MO,64124,-94.52588,39.109005,91450722,R
178,2500 CHELSEA AVENUE,KANSAS CITY,MO,64128,Match,Non_Exact,2500 Chelsea Ave,KANSAS CITY,MO,64127,-94.52665,39.080032,91451429,R
217,1100 GRAND BOULEVARD,KANSAS CITY,MO,64108,Match,Exact,1100 Grand Blvd,KANSAS CITY,MO,64108,-94.58089,39.100964,91445190,R
177,1700 INDEPENDENCE AVENUE,KANSAS CITY,MO,64109,Match,Non_Exact,1700 Independence Ave,KANSAS CITY,MO,64106,-94.560745,39.10668,91448817,L
218,1100 TROOST AVENUE,KANSAS CITY,MO,64108,Match,Non_Exact,1100 Troost Ave,KANSAS CITY,MO,64106,-94.569855,39.100628,91445706,R
176,1600 NW 88 STREET,KANSAS CITY,MO,64155,Match,Non_Exact,1600 NE 88th St,KANSAS CITY,MO,64155,-94.55966,39.25335,89775229,L
820,5500 WOODLAND AVENUE,KANSAS CITY,MO,64130,Match,Non_Exact,5500 Woodland Ave,KANSAS CITY,MO,64110,-94.564514,39.02677,91452475,R
821,5600 NW HILLSIDE DR,KANSAS CITY,MO,64152,Match,Non_Exact,5600 NW Hillside Dr,KANSAS CITY,MO,64151,-94.629456,39.19616,39694355,L
170,600 NE 38 STREET,KANSAS CITY,MO,64116,Match,Exact,600 NE 38th St,KANSAS CITY,MO,64116,-94.57428,39.163338,89756618,L
418,E 12 STREET and HARDESTY AVENUE,KANSAS CITY,MO,64127,Match,Exact,E 12 St & Hardesty Ave,KANSAS CITY,MO,64127,-94.51917,39.097744,"",""
171,7300 PROSPECT AVENUE,KANSAS CITY,MO,64130,Match,Non_Exact,7300 Prospect Ave,KANSAS CITY,MO,64132,-94.55711,38.99432,91456722,R
417,E 116 STREET and HOLIDAY DR,KANSAS CITY,MO,64134,Match,Exact,E 116 St & Holiday Dr,KANSAS CITY,MO,64134,-94.51246,38.91247,"",""
416,E 114 STREET and PALMER AVENUE,KANSAS CITY,MO,64134,Match,Exact,E 114 St & Palmer Ave,KANSAS CITY,MO,64134,-94.500244,38.917385,"",""
415,CHERRY STREET and E TRUMAN ROAD,KANSAS CITY,MO,64106,Match,Non_Exact,Cherry St & E Truman Rd,KANSAS CITY,MO,64108,-94.57644,39.09553,"",""
174,W 47 STREET and J C NICHOLS PARKWAY,KANSAS CITY,MO,64111,No_Match,,,,,,,,,
623,GARFIELD AVENUE and INDEPENDENCE AVENUE,KANSAS CITY,MO,64123,No_Match,,,,,,,,,
175,100 E 32 STREET,KANSAS CITY,MO,64111,Match,Exact,100 E 32 St,KANSAS CITY,MO,64111,-94.58397,39.069168,91446082,L
622,EMANUEL CLEAVER II BOULEVARD and TROOST AVENUE,KANSAS CITY,MO,64110,No_Match,,,,,,,,,
172,8500 STATE LINE ROAD,KANSAS CITY,MO,64131,No_Match,,,,,,,,,
621,EMANUEL CLEAVER II BOULEVARD and MAIN STREET,KANSAS CITY,MO,64130,No_Match,,,,,,,,,
173,HARDESTY AVENUE and INDEPENDENCE AVENUE,KANSAS CITY,MO,64124,Tie,,,,,,,,,
419,E 12 STREET and LOCUST STREET,KANSAS CITY,MO,64106,Match,Exact,E 12 St & Locust St,KANSAS CITY,MO,64106,-94.57741,39.099724,"",""
620,EMANUEL CLEAVER II BOULEVARD and MAIN STREET,KANSAS CITY,MO,64111,No_Match,,,,,,,,,
410,BALES AVENUE and E TRUMAN ROAD,KANSAS CITY,MO,"",No_Match,,,,,,,,,
627,INDEPENDENCE AVENUE and PARK AVENUE,KANSAS CITY,MO,"",Tie,,,,,,,,,
626,INDEPENDENCE AVENUE and MONROE AVENUE,KANSAS CITY,MO,64127,Tie,,,,,,,,,
625,INDEPENDENCE AND SPRUCE AVE,KANSAS CITY,MO,64126,Tie,,,,,,,,,
819,5500 STREET JOHN AVENUE,KANSAS CITY,MO,64124,No_Match,,,,,,,,,
624,GRAND BOULEVARD and E TRUMAN ROAD,KANSAS CITY,MO,64106,No_Match,,,,,,,,,
414,BRUCE R WATKINS DR and E LINWOOD BOULEVARD,KANSAS CITY,MO,64109,No_Match,,,,,,,,,
413,BROOKLYN AVENUE and INDEPENDENCE AVENUE,KANSAS CITY,MO,64123,No_Match,,,,,,,,,
412,BROADWAY BOULEVARD and KNICKERBOCKER PL,KANSAS CITY,MO,64111,Match,Non_Exact,Broadway St & Knickerbocker Pl,KANSAS CITY,MO,64111,-94.59043,39.06272,"",""
629,NE CHOUTEAU TRAFFICWAY and NE PARVIN ROAD,KANSAS CITY,MO,64119,No_Match,,,,,,,,,
411,BALES AVENUE and MORRELL AVENUE,KANSAS CITY,MO,64123,Match,Exact,Bales Ave & Morrell Ave,KANSAS CITY,MO,64123,-94.54016,39.112278,"",""
628,INDEPENDENCE AVENUE and TRACY AVENUE,KANSAS CITY,MO,64106,Match,Exact,Independence Ave & Tracy Ave,KANSAS CITY,MO,64106,-94.56673,39.1069,"",""
811,4600 JEFFERSON STREET,KANSAS CITY,MO,64111,Match,Non_Exact,4600 Jefferson St,KANSAS CITY,MO,64112,-94.59459,39.04415,91446948,R
220,13200 STATE LINE ROAD,KANSAS CITY,MO,64145,No_Match,,,,,,,,,
812,4700 NE WINN ROAD,KANSAS CITY,MO,64117,Match,Non_Exact,4700 NE Winn Rd,KANSAS CITY,MO,64119,-94.52933,39.180332,89768455,L
221,14400 S US HIGHWAY 71,KANSAS CITY,MO,64145,No_Match,,,,,,,,,
813,4900 STILLWELL AVENUE,KANSAS CITY,MO,64120,Match,Exact,4900 Stillwell Ave,KANSAS CITY,MO,64120,-94.52289,39.14089,91443514,L
222,15000 E US HIGHWAY 40,KANSAS CITY,MO,64136,Match,Exact,15000 US Hwy 40,KANSAS CITY,MO,64136,-94.40084,39.035046,91470577,L
814,5100 E LINWOOD BOULEVARD,KANSAS CITY,MO,64052,Match,Non_Exact,5100 E Linwood Blvd,KANSAS CITY,MO,64128,-94.52403,39.06924,91451588,L
223,1800 EMANUEL CLEAVER II BOULEVARD,KANSAS CITY,MO,64109,Match,Non_Exact,1800 Emanuel Cleaver II Blvd,KANSAS CITY,MO,64130,-94.5623,39.043606,91539805,L
815,5100 N CHOUTEAU TRAFFICWAY,KANSAS CITY,MO,64119,Match,Exact,5100 N Chouteau Trfy,KANSAS CITY,MO,64119,-94.543526,39.186497,89757926,L
224,2100 E 39 STREET,KANSAS CITY,MO,64110,Match,Non_Exact,2100 E 39 St,KANSAS CITY,MO,64109,-94.55966,39.055656,91451855,L
816,5200 N CHOUTEAU TRAFFICWAY,KANSAS CITY,MO,64119,Match,Exact,5200 N Chouteau Trfy,KANSAS CITY,MO,64119,-94.5453,39.18805,89785800,L
225,2100 INDEPENDENCE AVENUE,KANSAS CITY,MO,64106,Match,Non_Exact,2100 Independence Ave,KANSAS CITY,MO,64124,-94.557076,39.10654,91448897,L
817,5200 NE 44 TERRACE,KANSAS CITY,MO,64117,Match,Exact,5200 NE 44th Ter,KANSAS CITY,MO,64117,-94.51904,39.174564,89758750,L
226,2600 PROSPECT AVENUE,KANSAS CITY,MO,64128,Match,Non_Exact,2600 Prospect Ave,KANSAS CITY,MO,64127,-94.55242,39.078815,91449980,R
818,5500 N ANTIOCH ROAD,KANSAS CITY,MO,64118,Match,Non_Exact,5500 N Antioch Rd,KANSAS CITY,MO,64119,-94.54871,39.193794,89757609,L
227,2800 OAKLEY AVENUE,KANSAS CITY,MO,64127,Match,Non_Exact,2800 Oakley Ave,KANSAS CITY,MO,64128,-94.51804,39.074482,91451644,R
228,3000 PROSPECT AVENUE,KANSAS CITY,MO,64127,Match,Non_Exact,3000 Prospect Ave,KANSAS CITY,MO,64128,-94.55277,39.071575,91450174,R
188,E 24 STREET and HARDESTY AVENUE,KANSAS CITY,MO,64127,Match,Exact,E 24 St & Hardesty Ave,KANSAS CITY,MO,64127,-94.52,39.081326,"",""
229,3600 N RANDOLPH ROAD,KANSAS CITY,MO,64161,Match,Exact,3600 Randolph Rd,KANSAS CITY,MO,64161,-94.49515,39.16218,89764814,L
187,E 18 STREET and WOODLAND AVENUE,KANSAS CITY,MO,64109,No_Match,,,,,,,,,
189,E 39 STREET and TROOST AVENUE,KANSAS CITY,MO,64110,Match,Non_Exact,E 39 St & Troost Ave,KANSAS CITY,MO,64109,-94.57212,39.05608,"",""
810,4500 CLEVELAND AVENUE,KANSAS CITY,MO,64127,Match,Non_Exact,4500 Cleveland Ave,KANSAS CITY,MO,64130,-94.540344,39.044014,91452987,R
427,E 27 STREET and BENTON BOULEVARD,KANSAS CITY,MO,"",Match,Exact,E 27 St & Benton Blvd,KANSAS CITY,MO,64127,-94.54899,39.076965,"",""
180,4200 TROOST AVENUE,KANSAS CITY,MO,64109,Match,Non_Exact,4200 Troost Ave,KANSAS CITY,MO,64110,-94.57246,39.05062,91447975,R
426,E 24 STREET and DENVER AVENUE,KANSAS CITY,MO,64127,Match,Exact,E 24th St & Denver Ave,KANSAS CITY,MO,64127,-94.52229,39.081657,"",""
181,4700 WYANDOTTE STREET,KANSAS CITY,MO,64111,Match,Non_Exact,4700 Wyandotte St,KANSAS CITY,MO,64112,-94.589226,39.042175,91527057,R
429,E 31 STREET and VAN BRUNT BOULEVARD,KANSAS CITY,MO,64129,Tie,,,,,,,,,
182,5000 INDEPENDENCE AVENUE,KANSAS CITY,MO,64123,Match,Non_Exact,5000 Independence Ave,KANSAS CITY,MO,64124,-94.52375,39.105404,91450753,L
428,E 3 STREET and CHERRY STREET,KANSAS CITY,MO,64106,Match,Exact,E 3 St & Cherry St,KANSAS CITY,MO,64106,-94.57732,39.11108,"",""
183,6400 CHESTNUT AVENUE,KANSAS CITY,MO,64130,Match,Non_Exact,6400 Chestnut Ave,KANSAS CITY,MO,64132,-94.55393,39.010586,91456529,R
610,E 67 STREET and OLIVE STREET,KANSAS CITY,MO,64132,Match,Exact,E 67th St & Olive St,KANSAS CITY,MO,64132,-94.55883,39.005383,"",""
184,7700 E 112 TERRACE,KANSAS CITY,MO,64134,Match,Exact,7700 E 112 Ter,KANSAS CITY,MO,64134,-94.500626,38.922028,91466256,L
185,9100 E 39 STREET,KANSAS CITY,MO,64129,Match,Non_Exact,9100 E 39 St,KANSAS CITY,MO,64133,-94.47167,39.052433,91460596,L
612,E 71 TERRACE and BROOKLYN AVENUE,KANSAS CITY,MO,64132,No_Match,,,,,,,,,
186,BROOKLYN AVENUE and INDEPENDENCE AVENUE,KANSAS CITY,MO,64124,Match,Exact,Brooklyn Ave & Independence Ave,KANSAS CITY,MO,64124,-94.55567,39.106483,"",""
611,E 7 STREET and NORTON AVENUE,KANSAS CITY,MO,64124,Match,Exact,E 7 St & Norton Ave,KANSAS CITY,MO,64124,-94.53423,39.103928,"",""
809,4300 INDIANA AVENUE,KANSAS CITY,MO,64128,Match,Non_Exact,4300 Indiana Ave,KANSAS CITY,MO,64130,-94.54478,39.047794,91452270,R
614,E 9 STREET and MCGEE STREET,KANSAS CITY,MO,64106,Match,Exact,E 9 St & McGee St,KANSAS CITY,MO,64106,-94.579544,39.10345,"",""
808,4300 CLARY BOULEVARD,KANSAS CITY,MO,64130,Match,Exact,4300 Clary Blvd,KANSAS CITY,MO,64130,-94.51942,39.047768,91515180,L
613,E 85 STREET and BRUCE R WATKINS DR,KANSAS CITY,MO,64132,No_Match,,,,,,,,,
421,E 14 STREET and CHERRY STREET,KANSAS CITY,MO,64106,Match,Exact,E 14 St & Cherry St,KANSAS CITY,MO,64106,-94.57633,39.097023,"",""
616,E 9 STREET and VAN BRUNT BOULEVARD,KANSAS CITY,MO,64124,Match,Exact,E 9 St & Van Brunt Blvd,KANSAS CITY,MO,64124,-94.52597,39.101707,"",""
420,E 12 STREET and OAK STREET,KANSAS CITY,MO,64106,Match,Exact,E 12th St & Oak St,KANSAS CITY,MO,64106,-94.57854,39.099766,"",""
615,E 9 STREET and VAN BRUNT BOULEVARD,KANSAS CITY,MO,64123,No_Match,,,,,,,,,
423,E 18 STREET and BENTON BOULEVARD,KANSAS CITY,MO,64127,Match,Exact,E 18 St & Benton Blvd,KANSAS CITY,MO,64127,-94.54964,39.09074,"",""
618,E GREGORY BOULEVARD and OAKWOOD DR,KANSAS CITY,MO,64130,No_Match,,,,,,,,,
422,E 16 STREET and ELMWOOD AVENUE,KANSAS CITY,MO,64127,Match,Exact,E 16 St & Elmwood Ave,KANSAS CITY,MO,64127,-94.528946,39.092495,"",""
617,E ARMOUR BOULEVARD and HARRISON STREET,KANSAS CITY,MO,64106,No_Match,,,,,,,,,
425,E 18 STREET and GRAND BOULEVARD,KANSAS CITY,MO,64108,Match,Non_Exact,E 18 St & Grand Blvd,KANSAS CITY,MO,64127,-94.58134,39.09171,"",""
424,E 18 STREET and FOREST AVENUE,KANSAS CITY,MO,64106,No_Match,,,,,,,,,
619,ELMWOOD AVENUE and INDEPENDENCE AVENUE,KANSAS CITY,MO,64124,Tie,,,,,,,,,
843,7700 NW PRAIRIE VIEW ROAD,KANSAS CITY,MO,64151,Match,Exact,7700 NW Prairie View Rd,KANSAS CITY,MO,64151,-94.65888,39.234467,39692977,L
116,7100 NW 86 TERRACE,KANSAS CITY,MO,64152,No_Match,,,,,,,,,
842,7600 NW PRAIRIE VIEW ROAD,KANSAS CITY,MO,64152,Match,Non_Exact,7600 NW Prairie View Rd,KANSAS CITY,MO,64151,-94.65834,39.23268,39718573,L
117,8600 E 114 TERRACE,KANSAS CITY,MO,64134,Match,Exact,8600 E 114 Ter,KANSAS CITY,MO,64134,-94.491745,38.91548,91466333,L
841,7600 NW 97 TERRACE,KANSAS CITY,MO,64152,Match,Non_Exact,7600 NW 97 Ter,KANSAS CITY,MO,64153,-94.668465,39.27091,39692740,R
114,3500 PROSPECT AVENUE,KANSAS CITY,MO,64127,Match,Non_Exact,3500 Prospect Ave,KANSAS CITY,MO,64128,-94.55322,39.062546,91527639,R
840,7400 STATE LINE ROAD,KANSAS CITY,MO,64114,No_Match,,,,,,,,,
115,6600 E TRUMAN ROAD,KANSAS CITY,MO,64127,No_Match,,,,,,,,,
112,INDEPENDENCE AVENUE and PASEO,KANSAS CITY,MO,64106,Tie,,,,,,,,,
113,1800 EMANUEL CLEAVER II BOULEVARD,KANSAS CITY,MO,64110,Match,Non_Exact,1800 Emanuel Cleaver II Blvd,KANSAS CITY,MO,64130,-94.5623,39.043606,91539805,L
110,8500 WINNER ROAD,KANSAS CITY,MO,64127,No_Match,,,,,,,,,
111,E 35 STREET and PROSPECT AVENUE,KANSAS CITY,MO,64127,No_Match,,,,,,,,,
849,8000 E 118 TERRACE,KANSAS CITY,MO,64134,Match,Exact,8000 E 118 Ter,KANSAS CITY,MO,64134,-94.49889,38.908016,91477689,L
848,800 WHITE AVENUE,KANSAS CITY,MO,64123,Match,Non_Exact,800 White Ave,KANSAS CITY,MO,64125,-94.51133,39.102505,91458621,R
847,800 WHEELING AVENUE,KANSAS CITY,MO,64123,Match,Non_Exact,800 Wheeling Ave,KANSAS CITY,MO,64125,-94.51043,39.102356,91458629,R
846,7900 E 51 STREET,KANSAS CITY,MO,64130,Match,Non_Exact,7900 E 51 St,KANSAS CITY,MO,64129,-94.49296,39.031578,91460319,L
845,7800 E US HIGHWAY 40,KANSAS CITY,MO,64129,Match,Exact,7800 US Hwy 40,KANSAS CITY,MO,64129,-94.49166,39.06387,91527731,L
118,E 13 STREET and WALNUT STREET,KANSAS CITY,MO,64106,Match,Exact,E 13 St & Walnut St,KANSAS CITY,MO,64106,-94.58213,39.098553,"",""
844,7800 E 111 TERRACE,KANSAS CITY,MO,64134,Match,Exact,7800 E 111 Ter,KANSAS CITY,MO,64134,-94.49948,38.926147,91466191,L
119,E 27 STREET and VAN BRUNT BOULEVARD,KANSAS CITY,MO,64127,Tie,,,,,,,,,
435,E 70 STREET and COLLEGE AVENUE,KANSAS CITY,MO,64131,No_Match,,,,,,,,,
436,E 9 STREET and VAN BRUNT BOULEVARD,KANSAS CITY,MO,64127,Match,Non_Exact,E 9 St & Van Brunt Blvd,KANSAS CITY,MO,64124,-94.52597,39.101707,"",""
433,E 60 STREET and JACKSON AVENUE,KANSAS CITY,MO,64130,Tie,,,,,,,,,
434,E 63 STREET and SWOPE PK,KANSAS CITY,MO,64132,No_Match,,,,,,,,,
431,E 45 STREET and PROSPECT AVENUE,KANSAS CITY,MO,64130,Match,Exact,E 45 St & Prospect Ave,KANSAS CITY,MO,64130,-94.55416,39.04461,"",""
432,E 59 STREET and SWOPE PK,KANSAS CITY,MO,64130,No_Match,,,,,,,,,
430,E 39 STREET and US HIGHWAY 71 S,KANSAS CITY,MO,64130,No_Match,,,,,,,,,
439,E MEYER BOULEVARD and PASEO,KANSAS CITY,MO,64130,Tie,,,,,,,,,
437,E BANNISTER ROAD and I 435 HIGHWAY,KANSAS CITY,MO,64137,No_Match,,,,,,,,,
438,E LINWOOD BOULEVARD and MONTGALL AVENUE,KANSAS CITY,MO,"",Match,Exact,E Linwood Blvd & Montgall Ave,KANSAS CITY,MO,64128,-94.55176,39.068012,"",""
830,6600 COLLEGE AVENUE,KANSAS CITY,MO,64130,Match,Non_Exact,6600 College Ave,KANSAS CITY,MO,64132,-94.548294,39.007378,91456813,R
125,5800 E 20 STREET,KANSAS CITY,MO,64127,Match,Non_Exact,5800 E 20 St,KANSAS CITY,MO,64126,-94.515,39.08651,91458956,L
126,7600 PROSPECT AVENUE,KANSAS CITY,MO,64130,Match,Non_Exact,7600 Prospect Ave,KANSAS CITY,MO,64132,-94.55735,38.98957,91456732,R
832,6900 SPRUCE AVENUE,KANSAS CITY,MO,64130,Match,Non_Exact,6900 Spruce Ave,KANSAS CITY,MO,64132,-94.53697,39.00075,91457398,R
127,E 14 STREET and WALNUT STREET,KANSAS CITY,MO,64106,Match,Exact,E 14th St & Walnut St,KANSAS CITY,MO,64106,-94.58221,39.09719,"",""
831,6700 WILSON AVENUE,KANSAS CITY,MO,64125,Match,Exact,6700 Wilson Ave,KANSAS CITY,MO,64125,-94.50401,39.108376,91458576,L
128,E 23 STREET and TOPPING AVENUE,KANSAS CITY,MO,64127,Match,Non_Exact,E 23 St & Topping Ave,KANSAS CITY,MO,64127,-94.51529,39.08312,"",""
121,2400 VAN BRUNT BOULEVARD,KANSAS CITY,MO,64127,Match,Exact,2400 Van Brunt Blvd,KANSAS CITY,MO,64127,-94.52118,39.0814,91451477,R
122,2800 KENSINGTON AVENUE,KANSAS CITY,MO,64127,Match,Non_Exact,2800 Kensington Ave,KANSAS CITY,MO,64128,-94.53157,39.074524,91451286,R
123,47 and JC NICHOLS PKWY,KANSAS CITY,MO,64111,No_Match,,,,,,,,,
124,5100 NE VIVION ROAD,KANSAS CITY,MO,64118,Match,Non_Exact,5100 NE Vivion Rd,KANSAS CITY,MO,64119,-94.52003,39.188038,89758636,L
838,7300 RUSKIN WAY,KANSAS CITY,MO,64134,Match,Exact,7300 Ruskin Way,KANSAS CITY,MO,64134,-94.502556,38.919884,91466121,L
837,7300 OAKWOOD DR,KANSAS CITY,MO,64136,No_Match,,,,,,,,,
839,7400 NW 75 TERRACE,KANSAS CITY,MO,64152,Match,Exact,7400 NW 75 Ter,KANSAS CITY,MO,64152,-94.665886,39.231396,39709427,R
834,7300 E 109 TERRACE,KANSAS CITY,MO,64134,Match,Exact,7300 E 109 Ter,KANSAS CITY,MO,64134,-94.50539,38.924538,91466178,L
129,W 39 STREET and CENTRAL STREET,KANSAS CITY,MO,64111,Tie,,,,,,,,,
833,700 W 101 TERRACE,KANSAS CITY,MO,64114,Match,Exact,700 W 101 Ter,KANSAS CITY,MO,64114,-94.6007,38.944572,91508287,R
836,7300 N RHODE AVENUE,KANSAS CITY,MO,64152,Match,Non_Exact,7300 NW Rhode Ave,KANSAS CITY,MO,64152,-94.66977,39.228336,39709784,L
835,7300 E 118 TERRACE,KANSAS CITY,MO,64134,Match,Exact,7300 E 118 Ter,KANSAS CITY,MO,64134,-94.50731,38.908955,91477500,R
444,NE PARVIN ROAD and NE RUSSELL ROAD,KANSAS CITY,MO,64119,Tie,,,,,,,,,
445,NW 79 TERRACE and N AVALON STREET,KANSAS CITY,MO,64152,No_Match,,,,,,,,,
446,W 31 STREET and SOUTHWEST TRAFFICWAY,KANSAS CITY,MO,64111,No_Match,,,,,,,,,
447,W 40 TERRACE and PENNSYLVANIA AVENUE,KANSAS CITY,MO,64119,No_Match,,,,,,,,,
440,HIGHLAND AVENUE and E MISSOURI AVENUE,KANSAS CITY,MO,64106,Match,Exact,Highland Ave & E Missouri Ave,KANSAS CITY,MO,64106,-94.56192,39.10933,"",""
441,INDEPENDENCE AVENUE and JACKSON AVENUE,KANSAS CITY,MO,64124,Match,Exact,Independence Ave & Jackson Ave,KANSAS CITY,MO,64124,-94.53303,39.1057,"",""
442,JEFFERSON STREET and NICHOLS ROAD,KANSAS CITY,MO,64112,Match,Exact,Jefferson St & Nichols Rd,KANSAS CITY,MO,64112,-94.59479,39.04136,"",""
443,NE 67 TERRACE and N CYPRESS AVENUE,KANSAS CITY,MO,64156,No_Match,,,,,,,,,
120,1600 E 63 STREET,KANSAS CITY,MO,64131,Match,Non_Exact,1600 E 63 St,KANSAS CITY,MO,64110,-94.568825,39.01304,91454846,L
448,W 42 STREET and BROADWAY,KANSAS CITY,MO,64111,Match,Non_Exact,W 42nd St & Broadway St,KANSAS CITY,MO,64111,-94.58925,39.051662,"",""
449,W 42 STREET and WORNALL ROAD,KANSAS CITY,MO,64111,Match,Exact,W 42nd St & Wornall Rd,KANSAS CITY,MO,64111,-94.590614,39.0509,"",""
861,900 E 39 STREET,KANSAS CITY,MO,64110,Match,Non_Exact,900 E 39 St,KANSAS CITY,MO,64109,-94.57441,39.05618,91447771,L
134,9000 NW SKYVIEW AVENUE,KANSAS CITY,MO,64153,Match,Non_Exact,9000 NW Skyview Ave,KANSAS CITY,MO,64154,-94.65978,39.260117,39712207,L
860,8900 CAMBRIDGE AVENUE,KANSAS CITY,MO,64134,Match,Non_Exact,8900 Cambridge Ave,KANSAS CITY,MO,64138,-94.50849,38.96572,91507701,R
135,CLIFF DR and GLADSTONE BOULEVARD,KANSAS CITY,MO,64123,Match,Non_Exact,Cliff Dr & Gladstone Blvd,KANSAS CITY,MO,64120,-94.52799,39.11817,"",""
132,4100 TROOST AVENUE,KANSAS CITY,MO,64109,Match,Non_Exact,4100 Troost Ave,KANSAS CITY,MO,64110,-94.57235,39.052433,91447972,R
133,500 E 10 STREET,KANSAS CITY,MO,64106,Match,Exact,500 E 10 St,KANSAS CITY,MO,64106,-94.57723,39.10215,91445549,L
865,9900 NE BARRY ROAD,KANSAS CITY,MO,64158,No_Match,,,,,,,,,
138,E GREGORY BOULEVARD and PROSPECT AVENUE,KANSAS CITY,MO,64132,Match,Exact,E Gregory Blvd & Prospect Ave,KANSAS CITY,MO,64132,-94.55691,38.99804,"",""
864,9500 JAMES A REED ROAD,KANSAS CITY,MO,64138,Match,Non_Exact,9500 James A Reed Rd,KANSAS CITY,MO,64134,-94.49407,38.95168,91465923,R
139,HARDESTY AVENUE and INDEPENDENCE AVENUE,KANSAS CITY,MO,64123,Tie,,,,,,,,,
863,9300 NE 115 TERRACE,KANSAS CITY,MO,64157,No_Match,,,,,,,,,
136,E 23 STREET and PROSPECT AVENUE,KANSAS CITY,MO,64127,Tie,,,,,,,,,
862,9200 NE MO 152 HIGHWAY,KANSAS CITY,MO,64158,No_Match,,,,,,,,,
137,E 54 STREET and PASEO,KANSAS CITY,MO,64110,Tie,,,,,,,,,
869,ASKEW AVENUE and E TRUMAN ROAD,KANSAS CITY,MO,64127,No_Match,,,,,,,,,
868,ANDERSON AVENUE and HARDESTY AVENUE,KANSAS CITY,MO,64127,No_Match,,,,,,,,,
867,ANDERSON AVENUE and BELLAIRE AVENUE,KANSAS CITY,MO,64123,Tie,,,,,,,,,
866,ALLEN STREET and AVENIDA CESAR E. CHA,KANSAS CITY,MO,64108,No_Match,,,,,,,,,
450,1000 NE 104 TERRACE,KANSAS CITY,MO,64155,Match,Exact,1000 NE 104th Ter,KANSAS CITY,MO,64155,-94.56589,39.28226,89781967,L
453,1600 BROADWAY BOULEVARD,KANSAS CITY,MO,64106,No_Match,,,,,,,,,
454,200 GRAND BOULEVARD,KANSAS CITY,MO,64106,Match,Exact,200 Grand Blvd,KANSAS CITY,MO,64106,-94.58107,39.111034,91444917,R
451,10500 HICKMAN MILLS DR,KANSAS CITY,MO,64134,No_Match,,,,,,,,,
452,1200 E MEYER BOULEVARD,KANSAS CITY,MO,64132,Match,Non_Exact,1200 E Meyer Blvd,KANSAS CITY,MO,64131,-94.57327,39.01144,91517093,L
457,2600 PROSPECT AVENUE,KANSAS CITY,MO,64130,Match,Non_Exact,2600 Prospect Ave,KANSAS CITY,MO,64127,-94.55242,39.078815,91449980,R
458,300 W 75 STREET,KANSAS CITY,MO,64131,Match,Non_Exact,300 W 75 St,KANSAS CITY,MO,64114,-94.59293,38.99229,91454032,R
455,200 W 34 STREET,KANSAS CITY,MO,64111,Match,Exact,200 W 34 St,KANSAS CITY,MO,64111,-94.58796,39.06563,91446027,R
456,2300 TOPPING AVENUE,KANSAS CITY,MO,64127,Match,Non_Exact,2300 Topping Ave,KANSAS CITY,MO,64129,-94.51531,39.083015,91458968,R
459,3100 BROADWAY BOULEVARD,KANSAS CITY,MO,64111,Match,Non_Exact,3100 Broadway St,KANSAS CITY,MO,64111,-94.58995,39.071117,91446002,R
131,3700 TROOST AVENUE,KANSAS CITY,MO,64110,Match,Non_Exact,3700 Troost Ave,KANSAS CITY,MO,64109,-94.57196,39.059128,91447798,R
130,10300 HILLCREST ROAD,KANSAS CITY,MO,64137,Match,Exact,10300 Hillcrest Rd,KANSAS CITY,MO,64137,-94.5314,38.93865,91487823,R
143,100 W 62 TERRACE,KANSAS CITY,MO,64113,Match,Exact,100 W 62 Ter,KANSAS CITY,MO,64113,-94.58924,39.01486,91448325,R
144,10100 STATE LINE ROAD,KANSAS CITY,MO,64114,No_Match,,,,,,,,,
850,8000 MICHIGAN AVENUE,KANSAS CITY,MO,64130,Match,Non_Exact,8000 Michigan Ave,KANSAS CITY,MO,64132,-94.56578,38.98198,91457058,R
145,1600 NE PARVIN ROAD,KANSAS CITY,MO,64117,Match,Non_Exact,1600 NE Parvin Rd,KANSAS CITY,MO,64116,-94.5602,39.166668,89758799,L
146,2400 GRAND BOULEVARD,KANSAS CITY,MO,64106,Match,Non_Exact,2400 Grand Blvd,KANSAS CITY,MO,64108,-94.58175,39.08397,91445946,R
852,8000 STATE LINE ROAD,KANSAS CITY,MO,64114,No_Match,,,,,,,,,
147,2700 BENTON BOULEVARD,KANSAS CITY,MO,64127,Match,Non_Exact,2700 Benton Blvd,KANSAS CITY,MO,64128,-94.54901,39.076912,91450163,R
851,8000 N BRIGHTON AVENUE,KANSAS CITY,MO,64155,No_Match,,,,,,,,,
148,300 NW 96 STREET,KANSAS CITY,MO,64155,No_Match,,,,,,,,,
854,8300 OLIVE STREET,KANSAS CITY,MO,64131,Match,Non_Exact,8300 Olive St,KANSAS CITY,MO,64132,-94.56032,38.97557,91457161,R
149,400 MONROE AVENUE,KANSAS CITY,MO,64123,Match,Non_Exact,400 Monroe Ave,KANSAS CITY,MO,64124,-94.53746,39.109436,91450376,R
853,8300 NE 104 TERRACE,KANSAS CITY,MO,64157,Match,Exact,8300 NE 104th Ter,KANSAS CITY,MO,64157,-94.481964,39.281715,627764120,L
856,8500 BLUE PK W,KANSAS CITY,MO,64130,No_Match,,,,,,,,,
855,8400 PROSPECT AVENUE,KANSAS CITY,MO,64130,Match,Non_Exact,8400 Prospect Ave,KANSAS CITY,MO,64132,-94.558105,38.974598,91457129,R
858,8700 E US HIGHWAY 40,KANSAS CITY,MO,64129,Match,Exact,8700 US Hwy 40,KANSAS CITY,MO,64129,-94.481895,39.06333,91460402,L
857,8600 NOLAND ROAD,KANSAS CITY,MO,64138,Match,Exact,8600 Noland Rd,KANSAS CITY,MO,64138,-94.42981,38.96463,91525606,R
859,8900 BLUE RIDGE BOULEVARD,KANSAS CITY,MO,64138,Match,Exact,8900 Blue Ridge Blvd,KANSAS CITY,MO,64138,-94.49765,38.961945,91465842,R
461,3200 PROSPECT AVENUE,KANSAS CITY,MO,64130,Match,Non_Exact,3200 Prospect Ave,KANSAS CITY,MO,64128,-94.552956,39.067963,91450184,R
460,3200 INDIANA AVENUE,KANSAS CITY,MO,64130,Match,Non_Exact,3200 Indiana Ave,KANSAS CITY,MO,64128,-94.54375,39.067646,91450293,R
462,3600 COLLEGE AVENUE,KANSAS CITY,MO,64127,Match,Non_Exact,3600 College Ave,KANSAS CITY,MO,64128,-94.54526,39.060482,91452130,R
463,3800 BROADWAY BOULEVARD,KANSAS CITY,MO,64110,No_Match,,,,,,,,,
464,400 NW BARRY ROAD,KANSAS CITY,MO,64118,Match,Non_Exact,400 NW Barry Rd,KANSAS CITY,MO,64155,-94.58529,39.24647,89793890,R
465,4300 PASEO,KANSAS CITY,MO,64109,Match,Non_Exact,4300 Paseo,KANSAS CITY,MO,64110,-94.56802,39.047077,91521123,R
466,4700 E BANNISTER ROAD,KANSAS CITY,MO,64134,No_Match,,,,,,,,,
467,500 BALES AVENUE,KANSAS CITY,MO,64123,Match,Non_Exact,500 Bales Ave,KANSAS CITY,MO,64124,-94.540405,39.107708,91450356,R
468,5700 INDEPENDENCE AVENUE,KANSAS CITY,MO,64124,Match,Non_Exact,5700 Independence Ave,KANSAS CITY,MO,64123,-94.51553,39.105087,91450839,L
469,600 E LINWOOD BOULEVARD,KANSAS CITY,MO,64111,Match,Non_Exact,600 E Linwood Blvd,KANSAS CITY,MO,64109,-94.57774,39.068924,91446367,L
140,INDEPENDENCE AVENUE and MONROE AVENUE,KANSAS CITY,MO,64123,Tie,,,,,,,,,
142,N BELMONT BOULEVARD and STREET JOHN AVENUE,KANSAS CITY,MO,64123,No_Match,,,,,,,,,
141,INDIANA AVENUE and E LINWOOD BOULEVARD,KANSAS CITY,MO,64127,No_Match,,,,,,,,,
687,8200 E BANNISTER ROAD,KANSAS CITY,MO,64138,Match,Non_Exact,8200 E Bannister Rd,KANSAS CITY,MO,64134,-94.49384,38.95177,91465922,L
686,8000 N DENVER AVENUE,KANSAS CITY,MO,64119,No_Match,,,,,,,,,
689,8800 JAMES A REED ROAD,KANSAS CITY,MO,64133,No_Match,,,,,,,,,
688,8500 N EVANSTON AVENUE,KANSAS CITY,MO,64158,Match,Non_Exact,8500 Evanston Ave,KANSAS CITY,MO,64138,-94.46932,38.969185,91465656,R
683,7800 E 103 TERRACE,KANSAS CITY,MO,64134,Match,Exact,7800 E 103 Ter,KANSAS CITY,MO,64134,-94.4987,38.936993,91466162,L
682,7700 STATE LINE ROAD,KANSAS CITY,MO,64114,No_Match,,,,,,,,,
685,7900 PARK AVENUE,KANSAS CITY,MO,64131,Match,Non_Exact,7900 Park Ave,KANSAS CITY,MO,64132,-94.560684,38.983482,629851051,R
684,7800 E 48 STREET,KANSAS CITY,MO,64133,Match,Non_Exact,7800 E 48 St,KANSAS CITY,MO,64129,-94.494255,39.03715,91460297,L
888,E 17 STREET and PASEO,KANSAS CITY,MO,64108,Tie,,,,,,,,,
889,E 18 STREET and ASKEW AVENUE,KANSAS CITY,MO,64127,Match,Exact,E 18 St & Askew Ave,KANSAS CITY,MO,64127,-94.5403,39.090412,"",""
884,E 12 STREET and BENTON BOULEVARD,KANSAS CITY,MO,64127,Match,Exact,E 12 St & Benton Blvd,KANSAS CITY,MO,64127,-94.544464,39.098618,"",""
885,E 12 STREET and PROSPECT AVENUE,KANSAS CITY,MO,64108,No_Match,,,,,,,,,
886,E 13 STREET and LOCUST STREET,KANSAS CITY,MO,64106,Match,Exact,E 13th St & Locust St,KANSAS CITY,MO,64106,-94.57747,39.09843,"",""
680,7300 PROSPECT AVENUE,KANSAS CITY,MO,64131,Match,Non_Exact,7300 Prospect Ave,KANSAS CITY,MO,64132,-94.55711,38.99432,91456722,R
887,E 14 STREET and HIGHLAND AVENUE,KANSAS CITY,MO,64106,Match,Exact,E 14 St & Highland Ave,KANSAS CITY,MO,64106,-94.561775,39.096485,"",""
681,7600 MONROE AVENUE,KANSAS CITY,MO,64120,Match,Non_Exact,7600 Monroe Ave,KANSAS CITY,MO,64132,-94.54512,38.987934,629896671,R
880,E 10 STREET and GRAND BOULEVARD,KANSAS CITY,MO,64106,Match,Exact,E 10th St & Grand Blvd,KANSAS CITY,MO,64106,-94.5808,39.102264,"",""
881,E 10 STREET and MAIN STREET,KANSAS CITY,MO,64108,Match,Non_Exact,E 10th St & Main St,KANSAS CITY,MO,64106,-94.583115,39.102287,"",""
882,E 116 STREET and WINCHESTER AVENUE,KANSAS CITY,MO,64134,Match,Exact,E 116th St & Winchester Ave,KANSAS CITY,MO,64134,-94.510544,38.91321,"",""
883,E 118 TERRACE and WINCHESTER AVENUE,KANSAS CITY,MO,64134,No_Match,,,,,,,,,
678,6300 INDEPENDENCE AVENUE,KANSAS CITY,MO,64123,Match,Non_Exact,6300 Independence Ave,KANSAS CITY,MO,64125,-94.50801,39.104824,91458564,L
677,6000 INDEPENDENCE AVENUE S,KANSAS CITY,MO,64123,No_Match,,,,,,,,,
676,5800 NE 60 STREET,KANSAS CITY,MO,64118,Match,Non_Exact,5800 NE 60th St,KANSAS CITY,MO,64119,-94.51181,39.202286,89761093,L
675,5300 NW 64 STREET,KANSAS CITY,MO,64152,Match,Non_Exact,5300 NW 64th St,KANSAS CITY,MO,64151,-94.64656,39.21052,39697405,R
674,5300 N CHOUTEAU TRAFFICWAY,KANSAS CITY,MO,64118,Match,Non_Exact,5300 N Chouteau Trfy,KANSAS CITY,MO,64119,-94.545456,39.189236,89785801,L
673,5200 N ANTIOCH ROAD,KANSAS CITY,MO,"",Match,Exact,5200 N Antioch Rd,KANSAS CITY,MO,64119,-94.54879,39.18862,89757882,L
672,5000 BLUE RIDGE COURT,KANSAS CITY,MO,64133,Tie,,,,,,,,,
671,4400 NW BARRY ROAD,KANSAS CITY,MO,64151,Match,Non_Exact,4400 NW Barry Rd,KANSAS CITY,MO,64154,-94.63118,39.246662,39714314,R
679,7000 PROSPECT AVENUE,KANSAS CITY,MO,64131,Match,Non_Exact,7000 Prospect Ave,KANSAS CITY,MO,64132,-94.55683,38.99982,91456701,R
879,E 1 STREET and GRAND BOULEVARD,KANSAS CITY,MO,64105,No_Match,,,,,,,,,
877,CLEVELAND AVENUE and INDEPENDENCE AVENUE,KANSAS CITY,MO,"",Match,Exact,Cleveland Ave & Independence Ave,KANSAS CITY,MO,64124,-94.537224,39.10583,"",""
878,CYPRESS AVENUE and E TRUMAN ROAD,KANSAS CITY,MO,64127,Match,Exact,Cypress Ave & E Truman Rd,KANSAS CITY,MO,64127,-94.52997,39.09391,"",""
875,BLUE RIDGE COURT and SNI-A-BAR ROAD,KANSAS CITY,MO,64133,Match,Non_Exact,Blue Ridge Cutoff & Sni A Bar Rd,KANSAS CITY,MO,64133,-94.480446,39.03108,"",""
876,CHESTNUT TRAFFICWAY and INDEPENDENCE AVENUE,KANSAS CITY,MO,64123,Tie,,,,,,,,,
670,4200 E 63 STREET,KANSAS CITY,MO,64132,Match,Non_Exact,4200 E 63 St,KANSAS CITY,MO,64130,-94.5375,39.011497,91457326,L
873,BENNINGTON AVENUE and ROBERTS STREET,KANSAS CITY,MO,64123,Tie,,,,,,,,,
874,BLUE PK and HARDESTY AVENUE,KANSAS CITY,MO,64129,No_Match,,,,,,,,,
871,BALES AVENUE and STREET JOHN AVENUE,KANSAS CITY,MO,64123,No_Match,,,,,,,,,
872,BELLEFONTAINE AVENUE and INDEPENDENCE AVENUE,KANSAS CITY,MO,64124,Tie,,,,,,,,,
870,ASKEW AVENUE and INDEPENDENCE AVENUE,KANSAS CITY,MO,64123,No_Match,,,,,,,,,
696,BLUE RIDGE BOULEVARD and I 470 HIGHWAY,KANSAS CITY,MO,64134,No_Match,,,,,,,,,
695,BLUE PK and EASTWOOD TRAFFICWAY,KANSAS CITY,MO,64130,No_Match,,,,,,,,,
694,ARARAT DR and EASTWOOD TRAFFICWAY,KANSAS CITY,MO,64131,No_Match,,,,,,,,,
693,9900 NE BARRY ROAD,KANSAS CITY,MO,64157,No_Match,,,,,,,,,
890,E 18 STREET and LOCUST STREET,KANSAS CITY,MO,64108,Match,Exact,E 18th St & Locust St,KANSAS CITY,MO,64108,-94.577805,39.0916,"",""
699,CYPRESS AVENUE and INDEPENDENCE AVENUE,KANSAS CITY,MO,64123,Tie,,,,,,,,,
698,CLEVELAND AVENUE and EMANUEL CLEAVER II BOULEVARD E,KANSAS CITY,MO,64130,No_Match,,,,,,,,,
697,BRUCE R WATKINS DR and E MEYER BOULEVARD,KANSAS CITY,MO,64132,No_Match,,,,,,,,,
899,E 32 STREET and INDIANA AVENUE,KANSAS CITY,MO,64130,Tie,,,,,,,,,
893,E 22 STREET and BRUCE R WATKINS DR,KANSAS CITY,MO,64108,No_Match,,,,,,,,,
894,E 23 STREET and BROOKLYN AVENUE,KANSAS CITY,MO,64127,Match,Exact,E 23 St & Brooklyn Ave,KANSAS CITY,MO,64127,-94.55675,39.084488,"",""
891,E 18 STREET and VINE STREET,KANSAS CITY,MO,64108,Match,Exact,E 18 St & Vine St,KANSAS CITY,MO,64108,-94.56336,39.091232,"",""
892,E 2 STREET and MAIN STREET,KANSAS CITY,MO,64105,Match,Non_Exact,E 2nd St & Main St,KANSAS CITY,MO,64106,-94.58359,39.110584,"",""
897,E 27 STREET and PROSPECT AVENUE,KANSAS CITY,MO,64130,No_Match,,,,,,,,,
691,8900 WOODLAND AVENUE,KANSAS CITY,MO,64130,Match,Non_Exact,8900 Woodland Ave,KANSAS CITY,MO,64131,-94.56771,38.96578,91455511,R
898,E 29 STREET and VAN BRUNT BOULEVARD,KANSAS CITY,MO,64127,Tie,,,,,,,,,
692,9200 NE MO 152 HIGHWAY,KANSAS CITY,MO,64155,No_Match,,,,,,,,,
895,E 24 STREET and VAN BRUNT BOULEVARD,KANSAS CITY,MO,64127,Match,Exact,E 24 St & Van Brunt Blvd,KANSAS CITY,MO,64127,-94.52115,39.081493,"",""
896,E 27 STREET and INDIANA AVENUE,KANSAS CITY,MO,64127,Match,Exact,E 27th St & Indiana Ave,KANSAS CITY,MO,64127,-94.543274,39.076775,"",""
690,8900 NE 106 TERRACE,KANSAS CITY,MO,64157,Match,Exact,8900 NE 106th Ter,KANSAS CITY,MO,64157,-94.47103,39.285484,89759709,L
646,1500 CITADEL DR,KANSAS CITY,MO,64110,Match,Exact,1500 Citadel Dr,KANSAS CITY,MO,64110,-94.56849,39.01642,624765997,L
647,1600 W 12 STREET,KANSAS CITY,MO,64105,Match,Exact,1600 W 12 St,KANSAS CITY,MO,64105,-94.60383,39.100098,91444240,R
648,1700 INDEPENDENCE,KANSAS CITY,MO,64111,No_Match,,,,,,,,,
649,2000 INDEPENDENCE AVENUE,KANSAS CITY,MO,64106,Match,Non_Exact,2000 Independence Ave,KANSAS CITY,MO,64124,-94.55786,39.106567,91448896,L
195,1100 E 116 TERRACE,KANSAS CITY,MO,64131,Match,Exact,1100 E 116 Ter,KANSAS CITY,MO,64131,-94.5793,38.915684,91507538,L
642,1400 NE 114 TERRACE,KANSAS CITY,MO,64155,Match,Exact,1400 NE 114th Ter,KANSAS CITY,MO,64155,-94.56126,39.300804,89754736,L
194,10900 HICKMAN MILLS DR,KANSAS CITY,MO,64134,Match,Non_Exact,10900 Hickman Mills Dr,KANSAS CITY,MO,64137,-94.52541,38.927017,91458351,R
643,14900 E US HIGHWAY 40,KANSAS CITY,MO,64133,Match,Non_Exact,14900 US Hwy 40,KANSAS CITY,MO,64136,-94.40168,39.03508,91470577,L
197,4500 N BRIGHTON AVENUE,KANSAS CITY,MO,64119,Match,Non_Exact,4500 N Brighton Ave,KANSAS CITY,MO,64117,-94.52138,39.17553,89758731,L
644,1500 BRISTOL AVENUE,KANSAS CITY,MO,64126,No_Match,,,,,,,,,
196,4300 N CORRINGTON AVENUE,KANSAS CITY,MO,64119,No_Match,,,,,,,,,
645,1500 CAMPBELL STREET,KANSAS CITY,MO,64106,Match,Non_Exact,1500 Campbell St,KANSAS CITY,MO,64108,-94.572784,39.095352,91445743,R
191,I 70 HIGHWAY and STERLING AVENUE,KANSAS CITY,MO,64133,No_Match,,,,,,,,,
190,E ARMOUR BOULEVARD and GILLHAM ROAD,KANSAS CITY,MO,64111,Match,Exact,E Armour Blvd & Gillham Rd,KANSAS CITY,MO,64111,-94.58099,39.063618,"",""
193,W 39 STREET and WYANDOTTE STREET,KANSAS CITY,MO,64111,Match,Exact,W 39th St & Wyandotte St,KANSAS CITY,MO,64111,-94.58844,39.05666,"",""
640,1200 N CENTURY AVENUE,KANSAS CITY,MO,64120,Match,Exact,1200 N Century Ave,KANSAS CITY,MO,64120,-94.489624,39.125572,91530144,R
192,PROSPECT AVENUE and E TRUMAN ROAD,KANSAS CITY,MO,64127,Match,Exact,Prospect Ave & E Truman Rd,KANSAS CITY,MO,64127,-94.55162,39.094666,"",""
641,1400 E 65 STREET,KANSAS CITY,MO,64132,Match,Non_Exact,1400 E 65 St,KANSAS CITY,MO,64131,-94.56924,39.009445,91518914,L
198,7100 E 111 TERRACE,KANSAS CITY,MO,64134,Match,Exact,7100 E 111 Ter,KANSAS CITY,MO,64134,-94.50836,38.92113,91466110,L
199,7700 E 108 TERRACE,KANSAS CITY,MO,64134,Match,Exact,7700 E 108 Ter,KANSAS CITY,MO,64134,-94.499954,38.928524,91466174,L
639,1200 E RIVERFRONT DR,KANSAS CITY,MO,64105,No_Match,,,,,,,,,
637,100 CYPRESS AVENUE,KANSAS CITY,MO,64124,Match,Non_Exact,100 Cypress Ave,KANSAS CITY,MO,64123,-94.52909,39.112724,91450437,R
638,100 ROYAL WAY,KANSAS CITY,MO,63136,No_Match,,,,,,,,,
635,W 20 STREET and BROADWAY BOULEVARD,KANSAS CITY,MO,64108,Match,Non_Exact,W 20 St & Broadway St,KANSAS CITY,MO,64108,-94.58893,39.089237,"",""
636,W 52 STREET and WORNALL ROAD,KANSAS CITY,MO,64112,Match,Exact,W 52nd St & Wornall Rd,KANSAS CITY,MO,64112,-94.59211,39.032307,"",""
633,THOMPSON AVENUE and VAN BRUNT BOULEVARD,KANSAS CITY,MO,64125,No_Match,,,,,,,,,
634,W 10 STREET and JEFFERSON STREET,KANSAS CITY,MO,64105,Match,Exact,W 10th St & Jefferson St,KANSAS CITY,MO,64105,-94.59216,39.102493,"",""
631,PROSPECT AVENUE and E TRUMAN ROAD,KANSAS CITY,MO,64124,No_Match,,,,,,,,,
632,ROYAL WAY and STADIUM DR,KANSAS CITY,MO,64133,No_Match,,,,,,,,,
630,PASEO and E TRUMAN ROAD,KANSAS CITY,MO,64127,Tie,,,,,,,,,
668,4100 AGNES AVENUE,KANSAS CITY,MO,64127,Match,Non_Exact,4100 Agnes Ave,KANSAS CITY,MO,64130,-94.54919,39.05158,91452212,R
669,4100 N MERSINGTON AVENUE,KANSAS CITY,MO,64119,Match,Non_Exact,4100 N Mersington Ave,KANSAS CITY,MO,64117,-94.534294,39.168446,89758538,L
660,300 E 44 STREET,KANSAS CITY,MO,64130,Match,Non_Exact,300 E 44 St,KANSAS CITY,MO,64111,-94.58306,39.047455,91447650,L
661,300 KENSINGTON AVENUE,KANSAS CITY,MO,64123,Match,Non_Exact,300 Kensington Ave,KANSAS CITY,MO,64124,-94.53042,39.110962,91450435,R
662,3000 MANCHESTER TRAFFICWAY,KANSAS CITY,MO,64129,No_Match,,,,,,,,,
663,3100 PROSPECT AVENUE,KANSAS CITY,MO,64130,Match,Non_Exact,3100 Prospect Ave,KANSAS CITY,MO,64128,-94.552864,39.06978,91450176,R
664,3200 JACKSON AVENUE,KANSAS CITY,MO,64130,Match,Non_Exact,3200 Jackson Ave,KANSAS CITY,MO,64128,-94.53458,39.06736,91451250,R
665,3400 INDEPENDENCE AVENUE,KANSAS CITY,MO,64123,Match,Non_Exact,3400 Independence Ave,KANSAS CITY,MO,64124,-94.54187,39.106026,91449302,L
666,3500 CHARLOTTE STREET,KANSAS CITY,MO,64108,Match,Non_Exact,3500 Charlotte St,KANSAS CITY,MO,64109,-94.575226,39.063293,91447719,R
667,400 HIGHLAND AVENUE,KANSAS CITY,MO,64109,Match,Non_Exact,400 Highland Ave,KANSAS CITY,MO,64106,-94.56154,39.11052,91448772,R
659,2900 E 27 STREET,KANSAS CITY,MO,64127,Match,Exact,2900 E 27 St,KANSAS CITY,MO,64127,-94.548935,39.076977,91450165,L
657,2500 VAN BRUNT BOULEVARD,KANSAS CITY,MO,64127,Match,Exact,2500 Van Brunt Blvd,KANSAS CITY,MO,64127,-94.521225,39.08058,91451477,R
658,2600 E GREGORY BOULEVARD,KANSAS CITY,MO,64131,Match,Non_Exact,2600 E Gregory Blvd,KANSAS CITY,MO,64132,-94.5569,38.998055,91526055,L
651,2200 E TRUMAN ROAD,KANSAS CITY,MO,64108,No_Match,,,,,,,,,
652,2300 MCGEE STREET,KANSAS CITY,MO,64106,Match,Exact,2300 McGee St,KANSAS CITY,MO,64106,-94.58049,39.085587,91445928,R
650,2100 E 36 STREET,KANSAS CITY,MO,64109,Match,Exact,2100 E 36 St,KANSAS CITY,MO,64109,-94.55901,39.06102,91451816,L
655,2400 MICHIGAN AVENUE,KANSAS CITY,MO,64109,Match,Non_Exact,2400 Michigan Ave,KANSAS CITY,MO,64127,-94.5603,39.083305,91449640,R
656,2400 NORTON AVENUE,KANSAS CITY,MO,64130,Match,Non_Exact,2400 Norton Ave,KANSAS CITY,MO,64127,-94.53498,39.082005,91451056,R
653,2400 GILLHAM STREET,KANSAS CITY,MO,64109,No_Match,,,,,,,,,
654,2400 GILLHAM STREET,KANSAS CITY,MO,64111,No_Match,,,,,,,,,
35,3500 BROADWAY BOULEVARD,KANSAS CITY,MO,64111,Match,Non_Exact,3500 Broadway St,KANSAS CITY,MO,64111,-94.59034,39.064575,91447323,R
36,3500 PROSPECT AVENUE,KANSAS CITY,MO,64130,Match,Non_Exact,3500 Prospect Ave,KANSAS CITY,MO,64128,-94.55322,39.062546,91527639,R
33,E 27 STREET and PROSPECT AVENUE,KANSAS CITY,MO,64127,Match,Exact,E 27 St & Prospect Ave,KANSAS CITY,MO,64127,-94.55248,39.077095,"",""
34,3900 BROADWAY BOULEVARD,KANSAS CITY,MO,64111,Match,Non_Exact,3900 Broadway St,KANSAS CITY,MO,64111,-94.59079,39.056698,91447364,R
39,2500 INDEPENDENCE AVENUE,KANSAS CITY,MO,64124,Match,Exact,2500 Independence Ave,KANSAS CITY,MO,64124,-94.55222,39.106354,91483592,L
37,1600 BROADWAY BOULEVARD,KANSAS CITY,MO,64108,Match,Non_Exact,1600 Broadway St,KANSAS CITY,MO,64108,-94.58868,39.094677,91445112,R
38,W 39 STREET and BROADWAY BOULEVARD,KANSAS CITY,MO,64111,Match,Non_Exact,W 39 St & Broadway St,KANSAS CITY,MO,64111,-94.59077,39.056744,"",""
43,BROADWAY and WESTPORT ROAD,KANSAS CITY,MO,64111,Match,Non_Exact,Broadway St & Westport Rd,KANSAS CITY,MO,64111,-94.59053,39.053295,"",""
42,3200 BROADWAY BOULEVARD,KANSAS CITY,MO,64111,Match,Non_Exact,3200 Broadway St,KANSAS CITY,MO,64111,-94.590065,39.069294,91446005,R
41,4400 N WINN ROAD,KANSAS CITY,MO,64117,Match,Non_Exact,4400 NE Winn Rd,KANSAS CITY,MO,64117,-94.5317,39.17382,89758515,L
40,1000 N CAMBRIDGE AVENUE,KANSAS CITY,MO,64120,Match,Exact,1000 N Cambridge Ave,KANSAS CITY,MO,64120,-94.49977,39.126614,91517253,R
22,6300 PROSPECT AVENUE,KANSAS CITY,MO,64130,Match,Non_Exact,6300 Prospect Ave,KANSAS CITY,MO,64132,-94.55618,39.0124,91456510,R
23,W 47 STREET and J C NICHOLS PARKWAY,KANSAS CITY,MO,64112,Match,Exact,W 47th St & J C Nichols Pkwy,KANSAS CITY,MO,64112,-94.588036,39.04215,"",""
24,14400 S US HIGHWAY 71,KANSAS CITY,MO,64147,No_Match,,,,,,,,,
25,8300 N CHURCH ROAD,KANSAS CITY,MO,64157,Match,Exact,8300 N Church Rd,KANSAS CITY,MO,64157,-94.46073,39.240322,627834701,L
26,14500 S US HIGHWAY 71,KANSAS CITY,MO,64145,Match,Non_Exact,14500 US Hwy 71,KANSAS CITY,MO,64147,-94.52718,38.862553,91524016,R
27,2700 INDIANA AVENUE,KANSAS CITY,MO,64127,Match,Non_Exact,2700 Indiana Ave,KANSAS CITY,MO,64128,-94.54329,39.076717,91450229,R
28,E 55 STREET and PROSPECT AVENUE,KANSAS CITY,MO,64130,Match,Exact,E 55th St & Prospect Ave,KANSAS CITY,MO,64130,-94.55517,39.026535,"",""
29,INDEPENDENCE AVENUE and TOPPING AVENUE,KANSAS CITY,MO,64123,Match,Exact,Independence Ave & Topping Ave,KANSAS CITY,MO,64123,-94.51449,39.105038,"",""
30,100 ARROWHEAD DR,KANSAS CITY,MO,64133,No_Match,,,,,,,,,
32,4000 BROADWAY,KANSAS CITY,MO,64111,Match,Non_Exact,4000 Broadway St,KANSAS CITY,MO,64111,-94.591034,39.054157,91527574,R
31,100 E PERSHING ROAD,KANSAS CITY,MO,64108,Match,Exact,100 E Pershing Rd,KANSAS CITY,MO,64108,-94.58288,39.084393,91445936,L
19,500 E 105 STREET,KANSAS CITY,MO,64114,Match,Non_Exact,500 E 105 St,KANSAS CITY,MO,64131,-94.586266,38.938274,91487809,L
17,3800 BLUE RIDGE COURT,KANSAS CITY,MO,64133,Match,Non_Exact,3800 Blue Ridge Cutoff,KANSAS CITY,MO,64133,-94.47294,39.05517,91460521,R
18,100 W PERSHING ROAD,KANSAS CITY,MO,64108,Match,Exact,100 W Pershing Rd,KANSAS CITY,MO,64108,-94.58882,39.083385,91528138,R
15,8900 E US HIGHWAY 40,KANSAS CITY,MO,64129,Match,Exact,8900 US Hwy 40,KANSAS CITY,MO,64129,-94.477325,39.06236,91460430,L
16,3600 BROADWAY BOULEVARD,KANSAS CITY,MO,64111,Match,Non_Exact,3600 Broadway St,KANSAS CITY,MO,64111,-94.590485,39.062115,91447332,R
13,5200 N ANTIOCH ROAD,KANSAS CITY,MO,64119,Match,Exact,5200 N Antioch Rd,KANSAS CITY,MO,64119,-94.54879,39.18862,89757882,L
14,2600 VAN BRUNT BOULEVARD,KANSAS CITY,MO,64127,Match,Exact,2600 Van Brunt Blvd,KANSAS CITY,MO,64127,-94.5209,39.07785,91451594,R
11,4000 BLUE RIDGE COURT,KANSAS CITY,MO,64133,Match,Non_Exact,4000 Blue Ridge Cutoff,KANSAS CITY,MO,64133,-94.474495,39.051735,91460582,R
12,1100 LOCUST STREET,KANSAS CITY,MO,64110,Match,Non_Exact,1100 Locust St,KANSAS CITY,MO,64106,-94.57737,39.100857,91445547,R
21,2300 HOLMES STREET,KANSAS CITY,MO,64106,Match,Non_Exact,2300 Holmes St,KANSAS CITY,MO,64108,-94.575806,39.08501,91446169,R
20,9200 NE MO 152 HIGHWAY,KANSAS CITY,MO,64157,No_Match,,,,,,,,,
10,1600 E 63 STREET,KANSAS CITY,MO,64130,Match,Non_Exact,1600 E 63 St,KANSAS CITY,MO,64110,-94.568825,39.01304,91454846,L
79,6400 MANCHESTER AVENUE,KANSAS CITY,MO,64129,Match,Non_Exact,6400 Manchester Ave,KANSAS CITY,MO,64133,-94.49599,39.00789,91506900,R
78,2700 SPRUCE AVENUE,KANSAS CITY,MO,64127,Match,Non_Exact,2700 Spruce Ave,KANSAS CITY,MO,64128,-94.53329,39.076363,91451260,R
77,8300 E US HIGHWAY 40,KANSAS CITY,MO,64129,Match,Exact,8300 US Hwy 40,KANSAS CITY,MO,64129,-94.48731,39.063362,91460396,L
82,100 E ARMOUR BOULEVARD,KANSAS CITY,MO,64111,Match,Exact,100 E Armour Blvd,KANSAS CITY,MO,64111,-94.58443,39.063755,91447424,L
83,1300 CHERRY STREET,KANSAS CITY,MO,64108,Match,Non_Exact,1300 Cherry St,KANSAS CITY,MO,64106,-94.576294,39.098335,91445559,R
80,7900 STATE LINE ROAD,KANSAS CITY,MO,64114,No_Match,,,,,,,,,
81,E 63 STREET and PROSPECT AVENUE,KANSAS CITY,MO,64130,Match,Exact,E 63rd St & Prospect Ave,KANSAS CITY,MO,64130,-94.55616,39.01249,"",""
86,500 HARDESTY AVENUE,KANSAS CITY,MO,64123,Match,Non_Exact,500 Hardesty Ave,KANSAS CITY,MO,64124,-94.51903,39.106976,91450819,R
87,100 W PERSHING ROAD,KANSAS CITY,MO,64106,Match,Non_Exact,100 W Pershing Rd,KANSAS CITY,MO,64108,-94.58882,39.083385,91528138,R
84,14500 S US HIGHWAY 71,KANSAS CITY,MO,64146,Match,Non_Exact,14500 US Hwy 71,KANSAS CITY,MO,64147,-94.52718,38.862553,91524016,R
85,4200 N ANTIOCH ROAD,KANSAS CITY,MO,64117,Match,Exact,4200 N Antioch Rd,KANSAS CITY,MO,64117,-94.54907,39.170467,89758025,L
67,5300 N CHOUTEAU TRAFFICWAY,KANSAS CITY,MO,64119,Match,Exact,5300 N Chouteau Trfy,KANSAS CITY,MO,64119,-94.545456,39.189236,89785801,L
66,E ARMOUR BOULEVARD and TROOST AVENUE,KANSAS CITY,MO,64109,Match,Exact,E Armour Blvd & Troost Ave,KANSAS CITY,MO,64109,-94.571724,39.063248,"",""
69,2300 E MEYER BOULEVARD,KANSAS CITY,MO,64131,Match,Non_Exact,2300 E Meyer Blvd,KANSAS CITY,MO,64132,-94.55953,39.007156,91456536,L
68,INDEPENDENCE AVENUE and WOODLAND AVENUE,KANSAS CITY,MO,64106,Match,Exact,Independence Ave & Woodland Ave,KANSAS CITY,MO,64106,-94.56024,39.10665,"",""
70,3500 BENTON BOULEVARD,KANSAS CITY,MO,64128,Match,Exact,3500 Benton Blvd,KANSAS CITY,MO,64128,-94.54637,39.062325,91452119,R
71,PROSPECT AVENUE and SWOPE PK,KANSAS CITY,MO,64130,Tie,,,,,,,,,
72,2300 HOLMES STREET,KANSAS CITY,MO,64109,Match,Non_Exact,2300 Holmes St,KANSAS CITY,MO,64108,-94.575806,39.08501,91446169,R
73,5300 INDEPENDENCE AVENUE,KANSAS CITY,MO,64123,Match,Non_Exact,5300 Independence Ave,KANSAS CITY,MO,64124,-94.520195,39.105263,91450817,L
74,100 WORLDS OF FUN AVENUE,KANSAS CITY,MO,64161,No_Match,,,,,,,,,
75,3000 VAN BRUNT BOULEVARD,KANSAS CITY,MO,64127,Match,Non_Exact,3000 Van Brunt Blvd,KANSAS CITY,MO,64128,-94.52077,39.071056,91451660,R
76,6200 E TRUMAN ROAD,KANSAS CITY,MO,64127,No_Match,,,,,,,,,
59,5300 NW 64 STREET,KANSAS CITY,MO,64151,Match,Exact,5300 NW 64th St,KANSAS CITY,MO,64151,-94.64656,39.21052,39697405,R
58,4900 INDEPENDENCE AVENUE,KANSAS CITY,MO,64123,Match,Non_Exact,4900 Independence Ave,KANSAS CITY,MO,64124,-94.52486,39.105434,91450739,L
57,4800 INDEPENDENCE AVENUE,KANSAS CITY,MO,64123,Match,Non_Exact,4800 Independence Ave,KANSAS CITY,MO,64124,-94.526115,39.105476,91450733,L
56,4200 STERLING AVENUE,KANSAS CITY,MO,64133,Match,Exact,4200 Sterling Ave,KANSAS CITY,MO,64133,-94.44775,39.045715,91463319,R
55,4100 BLUE RIDGE COURT,KANSAS CITY,MO,64133,Match,Non_Exact,4100 Blue Ridge Cutoff,KANSAS CITY,MO,64133,-94.47552,39.050198,91527285,R
64,8000 E TRUMAN ROAD,KANSAS CITY,MO,64127,No_Match,,,,,,,,,
65,8700 BLUE RIDGE BOULEVARD,KANSAS CITY,MO,64134,Match,Non_Exact,8700 Blue Ridge Blvd,KANSAS CITY,MO,64138,-94.499695,38.96629,91464825,R
62,5700 LONGVIEW ROAD,KANSAS CITY,MO,64134,Match,Non_Exact,5700 Longview Rd,KANSAS CITY,MO,64137,-94.5258,38.9163,91516977,L
63,8500 N CHURCH ROAD,KANSAS CITY,MO,64158,No_Match,,,,,,,,,
60,E 11 STREET and GRAND BOULEVARD,KANSAS CITY,MO,64106,Match,Exact,E 11th St & Grand Blvd,KANSAS CITY,MO,64106,-94.580864,39.101025,"",""
61,PENNSYLVANIA AVENUE and WESTPORT ROAD,KANSAS CITY,MO,64111,Match,Exact,Pennsylvania Ave & Westport Rd,KANSAS CITY,MO,64111,-94.59146,39.052856,"",""
49,3200 INDEPENDENCE AVENUE,KANSAS CITY,MO,64123,Match,Non_Exact,3200 Independence Ave,KANSAS CITY,MO,64124,-94.54398,39.1061,91449300,L
48,1900 INDEPENDENCE AVENUE,KANSAS CITY,MO,64106,Match,Non_Exact,1900 Independence Ave,KANSAS CITY,MO,64124,-94.55852,39.106586,91448896,L
45,100 ROYAL WAY,KANSAS CITY,MO,64133,No_Match,,,,,,,,,
44,E 10 STREET and MAIN STREET,KANSAS CITY,MO,64106,Match,Non_Exact,E 10th St & Main St,KANSAS CITY,MO,64106,-94.583115,39.102287,"",""
47,100 E 13 STREET,KANSAS CITY,MO,64106,Match,Exact,100 E 13 St,KANSAS CITY,MO,64106,-94.58208,39.098564,91445200,L
46,3000 VAN BRUNT BOULEVARD,KANSAS CITY,MO,64128,Match,Exact,3000 Van Brunt Blvd,KANSAS CITY,MO,64128,-94.52077,39.071056,91451660,R
51,5900 INDEPENDENCE AVENUE,KANSAS CITY,MO,64123,Match,Non_Exact,5900 Independence Ave,KANSAS CITY,MO,64125,-94.51293,39.104996,91458544,L
52,9700 MARION PARK DR,KANSAS CITY,MO,64138,No_Match,,,,,,,,,
53,100 E 45 STREET,KANSAS CITY,MO,64111,Match,Exact,100 E 45 St,KANSAS CITY,MO,64111,-94.58502,39.045914,91447634,L
54,W 47 STREET and J C NICHOLS PARKWAY,KANSAS CITY,MO,"",Match,Exact,W 47th St & J C Nichols Pkwy,KANSAS CITY,MO,64112,-94.588036,39.04215,"",""
50,3500 E MEYER BOULEVARD,KANSAS CITY,MO,64131,Match,Non_Exact,3500 E Meyer Blvd,KANSAS CITY,MO,64132,-94.545906,39.007755,91456847,L
487,E 24 STREET and PROSPECT AVENUE,KANSAS CITY,MO,64127,Match,Exact,E 24 St & Prospect Ave,KANSAS CITY,MO,64127,-94.55221,39.0831,"",""
281,NE BARRY ROAD and N OAK TRAFFICWAY,KANSAS CITY,MO,64155,No_Match,,,,,,,,,
486,E 23 STREET and CYPRESS AVENUE,KANSAS CITY,MO,64127,Match,Exact,E 23 St & Cypress Ave,KANSAS CITY,MO,64127,-94.5306,39.08363,"",""
280,I 435 HIGHWAY and NE MO 152 HIGHWAY,KANSAS CITY,MO,64119,No_Match,,,,,,,,,
485,E 18 STREET and VINE STREET,KANSAS CITY,MO,64106,No_Match,,,,,,,,,
484,E 16 STREET and WALNUT STREET,KANSAS CITY,MO,64108,Match,Exact,E 16th St & Walnut St,KANSAS CITY,MO,64108,-94.58235,39.094486,"",""
285,1100 E 63 STREET,KANSAS CITY,MO,64130,Match,Non_Exact,1100 E 63 St,KANSAS CITY,MO,64110,-94.57449,39.01326,91454792,L
284,100 NE 50 COURT,KANSAS CITY,MO,64118,Match,Exact,100 NE 50th Ct,KANSAS CITY,MO,64118,-94.580444,39.185413,89793109,R
489,E 27 STREET and BROOKLYN AVENUE,KANSAS CITY,MO,64127,Match,Exact,E 27 St & Brooklyn Ave,KANSAS CITY,MO,64127,-94.5571,39.077255,"",""
283,PENNSYLVANIA AVENUE and WESTPORT ROAD,KANSAS CITY,MO,64127,No_Match,,,,,,,,,
488,E 25 STREET and BALES AVENUE,KANSAS CITY,MO,64127,Match,Exact,E 25th St & Bales Ave,KANSAS CITY,MO,64127,-94.54196,39.080364,"",""
282,PASEO and E TRUMAN ROAD,KANSAS CITY,MO,64106,Match,Non_Exact,The Paseo & E Truman Rd,KANSAS CITY,MO,64106,-94.56401,39.095104,"",""
288,14900 E US HIGHWAY 40,KANSAS CITY,MO,64136,Match,Exact,14900 US Hwy 40,KANSAS CITY,MO,64136,-94.40168,39.03508,91470577,L
289,1700 GRAND BOULEVARD,KANSAS CITY,MO,64106,Match,Non_Exact,1700 Grand Blvd,KANSAS CITY,MO,64108,-94.581276,39.093285,91445270,R
286,1100 N CENTURY AVENUE,KANSAS CITY,MO,64120,No_Match,,,,,,,,,
287,11600 E US HIGHWAY 40,KANSAS CITY,MO,64123,No_Match,,,,,,,,,
482,E 13 STREET and CHERRY STREET,KANSAS CITY,MO,64106,Match,Exact,E 13th St & Cherry St,KANSAS CITY,MO,64106,-94.57627,39.098404,"",""
483,E 16 STREET and MAIN STREET,KANSAS CITY,MO,64106,No_Match,,,,,,,,,
480,E 107 STREET and BLUE RIDGE BOULEVARD,KANSAS CITY,MO,64134,Match,Exact,E 107 St & Blue Ridge Blvd,KANSAS CITY,MO,64134,-94.50774,38.930534,"",""
481,E 114 STREET and RUSKIN WAY,KANSAS CITY,MO,64134,Match,Exact,E 114 St & Ruskin Way,KANSAS CITY,MO,64134,-94.50308,38.919975,"",""
474,8800 N CONGRESS AVENUE,KANSAS CITY,MO,64152,Match,Exact,8800 N Congress Ave,KANSAS CITY,MO,64152,-94.667946,39.254604,39712238,L
473,8400 N MERCIER STREET,KANSAS CITY,MO,64118,Match,Non_Exact,8400 Mercier St,KANSAS CITY,MO,64114,-94.60538,38.97635,91454090,R
476,9500 NE MO 152 HIGHWAY,KANSAS CITY,MO,64157,No_Match,,,,,,,,,
270,7500 PROSPECT AVENUE,KANSAS CITY,MO,64131,Match,Non_Exact,7500 Prospect Ave,KANSAS CITY,MO,64132,-94.557304,38.990517,91456732,R
475,8TH/DENVER,KANSAS CITY,MO,64127,No_Match,,,,,,,,,
